id,listing_url,name,picture_url,host_name,host_response_rate,host_is_superhost,host_has_profile_pic,host_thumbnail_url,host_picture_url,neighbourhood,property_type,bedrooms,bathrooms,price,weekly_price,monthly_price,availability_365,longitude,latitude,number_of_reviews,review_scores_rating,reviews_per_month
958,https://www.airbnb.com/rooms/958,"Bright, Modern Garden Unit - 1BR/1B",https://a0.muscache.com/im/pictures/51332160/0fa5e18c_original.jpg?aki_policy=large,Holly,92%,t,t,https://a0.muscache.com/im/pictures/efdad96a-3efc-4bc2-bdc9-f69740a5a818.jpg?aki_policy=profile_small,https://a0.muscache.com/im/pictures/efdad96a-3efc-4bc2-bdc9-f69740a5a818.jpg?aki_policy=profile_x_medium,Duboce Triangle,Apartment,1,1,170.00,1120.00,4200.00,122,-122.4338563,37.76931038,152,97,1.38
5858,https://www.airbnb.com/rooms/5858,Creative Sanctuary,https://a0.muscache.com/im/pictures/17714/3a7aea10_original.jpg?aki_policy=large,Philip And Tania,100%,f,t,https://a0.muscache.com/im/users/8904/profile_pic/1283840786/original.jpg?aki_policy=profile_small,https://a0.muscache.com/im/users/8904/profile_pic/1283840786/original.jpg?aki_policy=profile_x_medium,Bernal Heights,Apartment,2,1,235.00,1600.00,5500.00,365,-122.4210179,37.74511233,112,98,0.99
7918,https://www.airbnb.com/rooms/7918,A Friendly Room - UCSF/USF - San Francisco,https://a0.muscache.com/im/pictures/26356/8030652f_original.jpg?aki_policy=large,Aaron,100%,f,t,https://a0.muscache.com/im/users/21994/profile_pic/1428380894/original.jpg?aki_policy=profile_small,https://a0.muscache.com/im/users/21994/profile_pic/1428380894/original.jpg?aki_policy=profile_x_medium,Cole Valley,Apartment,1,4,65.00,485.00,1685.00,365,-122.4525046,37.7666896,17,85,0.16
8142,https://www.airbnb.com/rooms/8142,Friendly Room Apt. Style -UCSF/USF - San Francisco,https://a0.muscache.com/im/pictures/27832/3b1f9e5e_original.jpg?aki_policy=large,Aaron,100%,f,t,https://a0.muscache.com/im/users/21994/profile_pic/1428380894/original.jpg?aki_policy=profile_small,https://a0.muscache.com/im/users/21994/profile_pic/1428380894/original.jpg?aki_policy=profile_x_medium,Cole Valley,Apartment,1,4,65.00,490.00,1685.00,328,-122.451828,37.76487219,7,91,0.15
8339,https://www.airbnb.com/rooms/8339,Historic Alamo Square Victorian,https://a0.muscache.com/im/pictures/6f84a7c2-e350-48b5-9200-8964ec80bb4b.jpg?aki_policy=large,Rosy,100%,f,t,https://a0.muscache.com/im/users/24215/profile_pic/1314905289/original.jpg?aki_policy=profile_small,https://a0.muscache.com/im/users/24215/profile_pic/1314905289/original.jpg?aki_policy=profile_x_medium,Alamo Square,House,2,1.5,675.00,,,78,-122.4363737,37.77524859,26,97,0.24
8567,https://www.airbnb.com/rooms/8567,Lovely 2BR flat Great Location,https://a0.muscache.com/im/pictures/e2f3507c-dd08-4f5f-bd8c-93e749013c2b.jpg?aki_policy=large,Sandy,80%,f,t,https://a0.muscache.com/im/pictures/user/e20db090-e549-436e-ba36-ed1b652eae0f.jpg?aki_policy=profile_small,https://a0.muscache.com/im/pictures/user/e20db090-e549-436e-ba36-ed1b652eae0f.jpg?aki_policy=profile_x_medium,Western Addition/NOPA,Apartment,2,1,255.00,,,12,-122.4455543,37.78470745,30,90,0.27
8739,https://www.airbnb.com/rooms/8739,"Mission Sunshine, with Private Bath",https://a0.muscache.com/im/pictures/80811/7a57d0e7_original.jpg?aki_policy=large,Ivan & Wendy,100%,t,t,https://a0.muscache.com/im/users/7149/profile_pic/1259098370/original.jpg?aki_policy=profile_small,https://a0.muscache.com/im/users/7149/profile_pic/1259098370/original.jpg?aki_policy=profile_x_medium,Mission District,Condominium,1,1,139.00,,9999.00,130,-122.4223669,37.7591889,594,98,5.41
9225,https://www.airbnb.com/rooms/9225,Artful Potrero Separate Floor with Garden,https://a0.muscache.com/im/pictures/80742/6401eac2_original.jpg?aki_policy=large,Gae,100%,f,t,https://a0.muscache.com/im/users/29674/profile_pic/1314134196/original.jpg?aki_policy=profile_small,https://a0.muscache.com/im/users/29674/profile_pic/1314134196/original.jpg?aki_policy=profile_x_medium,Potrero Hill,House,1,1,135.00,1000.00,4000.00,313,-122.4054306,37.76258885,411,93,3.84
10251,https://www.airbnb.com/rooms/10251,Victorian Suite in Inner Mission,https://a0.muscache.com/im/pictures/30649314/ed09487a_original.jpg?aki_policy=large,Roman & Sarah,100%,t,t,https://a0.muscache.com/im/users/35199/profile_pic/1286322568/original.jpg?aki_policy=profile_small,https://a0.muscache.com/im/users/35199/profile_pic/1286322568/original.jpg?aki_policy=profile_x_medium,Mission District,Apartment,2,1,265.00,1540.00,5400.00,268,-122.413272,37.75874295,291,95,2.69
10578,https://www.airbnb.com/rooms/10578,Classic Nob Hill Studio - Roof Deck,https://a0.muscache.com/im/pictures/2249128/7f7ce9db_original.jpg?aki_policy=large,Andrew,100%,f,t,https://a0.muscache.com/im/users/37049/profile_pic/1286547340/original.jpg?aki_policy=profile_small,https://a0.muscache.com/im/users/37049/profile_pic/1286547340/original.jpg?aki_policy=profile_x_medium,,Apartment,0,1,120.00,1150.00,2875.00,309,-122.4154357,37.79142746,18,99,0.22
10819,https://www.airbnb.com/rooms/10819,Spacious 3BED/2BATH Apartment in Marina District,https://a0.muscache.com/im/pictures/45787/cf19017b_original.jpg?aki_policy=large,Bernat,99%,f,t,https://a0.muscache.com/im/pictures/ee148160-cdd5-49d5-9fad-2905f78bd27d.jpg?aki_policy=profile_small,https://a0.muscache.com/im/pictures/ee148160-cdd5-49d5-9fad-2905f78bd27d.jpg?aki_policy=profile_x_medium,Cow Hollow,Apartment,3,2,218.00,,,218,-122.4250454,37.80060136,22,88,0.34
10820,https://www.airbnb.com/rooms/10820,Haight Buena Vista Park Garden 3BR,https://a0.muscache.com/im/pictures/110980669/81b00c7e_original.jpg?aki_policy=large,Bernat,99%,f,t,https://a0.muscache.com/im/pictures/ee148160-cdd5-49d5-9fad-2905f78bd27d.jpg?aki_policy=profile_small,https://a0.muscache.com/im/pictures/ee148160-cdd5-49d5-9fad-2905f78bd27d.jpg?aki_policy=profile_x_medium,Lower Haight,Apartment,3,1,177.00,,,249,-122.4385911,37.77187372,35,88,0.33
10824,https://www.airbnb.com/rooms/10824,Victorian House in Hayes Valley,https://a0.muscache.com/im/pictures/45831/ae48b2a0_original.jpg?aki_policy=large,Bernat,99%,f,t,https://a0.muscache.com/im/pictures/ee148160-cdd5-49d5-9fad-2905f78bd27d.jpg?aki_policy=profile_small,https://a0.muscache.com/im/pictures/ee148160-cdd5-49d5-9fad-2905f78bd27d.jpg?aki_policy=profile_x_medium,Hayes Valley,Apartment,3,2,194.00,,,232,-122.4243619,37.77355002,13,92,0.17
10832,https://www.airbnb.com/rooms/10832,Union Square Modern Loft,https://a0.muscache.com/im/pictures/13456368/151ed257_original.jpg?aki_policy=large,Bernat,99%,f,t,https://a0.muscache.com/im/pictures/ee148160-cdd5-49d5-9fad-2905f78bd27d.jpg?aki_policy=profile_small,https://a0.muscache.com/im/pictures/ee148160-cdd5-49d5-9fad-2905f78bd27d.jpg?aki_policy=profile_x_medium,Union Square,Apartment,1,1.5,139.00,,4800.00,360,-122.4079771,37.7857389,17,92,0.25
12041,https://www.airbnb.com/rooms/12041,Sunny/Sunset view room UCSF/USF - San Francisco,https://a0.muscache.com/im/pictures/114583/240203ed_original.jpg?aki_policy=large,Aaron,100%,f,t,https://a0.muscache.com/im/users/21994/profile_pic/1428380894/original.jpg?aki_policy=profile_small,https://a0.muscache.com/im/users/21994/profile_pic/1428380894/original.jpg?aki_policy=profile_x_medium,Haight-Ashbury,Apartment,1,4,85.00,630.00,1995.00,305,-122.4459422,37.77018946,5,75,0.06
12042,https://www.airbnb.com/rooms/12042,Sunny/Sunset view room UCSF/USF - San Francisco,https://a0.muscache.com/im/pictures/93562/3d1cde44_original.jpg?aki_policy=large,Aaron,100%,f,t,https://a0.muscache.com/im/users/21994/profile_pic/1428380894/original.jpg?aki_policy=profile_small,https://a0.muscache.com/im/users/21994/profile_pic/1428380894/original.jpg?aki_policy=profile_x_medium,Haight-Ashbury,Apartment,1,3,85.00,630.00,1995.00,338,-122.4477822,37.76894262,5,64,0.08
12522,https://www.airbnb.com/rooms/12522,Perfectly located Castro,https://a0.muscache.com/im/pictures/9158991/d0fa6362_original.jpg?aki_policy=large,Brenda,100%,t,t,https://a0.muscache.com/im/users/18431/profile_pic/1310056211/original.jpg?aki_policy=profile_small,https://a0.muscache.com/im/users/18431/profile_pic/1310056211/original.jpg?aki_policy=profile_x_medium,The Castro,Apartment,1,1,79.00,,,0,-122.4303241,37.76074548,365,98,3.5
12584,https://www.airbnb.com/rooms/12584,"3 levels, Views, 2BR/1BA",https://a0.muscache.com/im/pictures/15772593/f0bb1141_original.jpg?aki_policy=large,Tom,100%,f,t,https://a0.muscache.com/im/pictures/6f085de9-38dc-4f44-8cd5-1762dbefad48.jpg?aki_policy=profile_small,https://a0.muscache.com/im/pictures/6f085de9-38dc-4f44-8cd5-1762dbefad48.jpg?aki_policy=profile_x_medium,Cole Valley,Townhouse,2,1,135.00,1600.00,4600.00,335,-122.4545495,37.76203102,14,93,0.2
14125,https://www.airbnb.com/rooms/14125,Gallery Residence,https://a0.muscache.com/im/pictures/440633/87bb0cc9_original.jpg?aki_policy=large,Olivia,100%,t,t,https://a0.muscache.com/im/users/55475/profile_pic/1259130176/original.jpg?aki_policy=profile_small,https://a0.muscache.com/im/users/55475/profile_pic/1259130176/original.jpg?aki_policy=profile_x_medium,Mission District,Apartment,1,1,215.00,,5500.00,284,-122.422455,37.7549067,93,98,0.89
17132,https://www.airbnb.com/rooms/17132,Luxury 2BR suite with waterview,https://a0.muscache.com/im/pictures/85402/497bbaa0_original.jpg?aki_policy=large,Hijin + David,100%,f,t,https://a0.muscache.com/im/pictures/fb48525a-7414-4bc0-989b-4c1d79f07f1b.jpg?aki_policy=profile_small,https://a0.muscache.com/im/pictures/fb48525a-7414-4bc0-989b-4c1d79f07f1b.jpg?aki_policy=profile_x_medium,South Beach,Condominium,2,2,450.00,2300.00,6600.00,308,-122.390717,37.78646668,14,96,0.15
18231,https://www.airbnb.com/rooms/18231,Loft-like Apt./Garden (monthly only available),https://a0.muscache.com/im/pictures/145020/505b8901_original.jpg?aki_policy=large,Arlene & Leon,100%,f,t,https://a0.muscache.com/im/users/70224/profile_pic/1389404148/original.jpg?aki_policy=profile_small,https://a0.muscache.com/im/users/70224/profile_pic/1389404148/original.jpg?aki_policy=profile_x_medium,Noe Valley,Apartment,0,1,107.00,,3200.00,130,-122.4298237,37.74888371,59,96,0.59
18904,https://www.airbnb.com/rooms/18904,Tranquil Lower Haight w/pvt bath,https://a0.muscache.com/im/pictures/11252601/977c2ba2_original.jpg?aki_policy=large,Patrick,100%,t,t,https://a0.muscache.com/im/pictures/user/4ca4abbe-b19b-4cf8-8c4b-783655090cf5.jpg?aki_policy=profile_small,https://a0.muscache.com/im/pictures/user/4ca4abbe-b19b-4cf8-8c4b-783655090cf5.jpg?aki_policy=profile_x_medium,Lower Haight,Townhouse,1,1,110.00,,,39,-122.4321565,37.77252152,328,97,4.04
19040,https://www.airbnb.com/rooms/19040,Mission Garden Retreat,https://a0.muscache.com/im/pictures/d18c209a-3e18-4d64-9288-ff2fda8d5c64.jpg?aki_policy=large,David,100%,t,t,https://a0.muscache.com/im/users/72731/profile_pic/1444258518/original.jpg?aki_policy=profile_small,https://a0.muscache.com/im/users/72731/profile_pic/1444258518/original.jpg?aki_policy=profile_x_medium,Mission District,Guest suite,0,1,198.00,1188.00,3888.00,0,-122.415174,37.76348967,225,96,2.19
21334,https://www.airbnb.com/rooms/21334,Studio loft on top of Russian Hill,https://a0.muscache.com/im/pictures/452548/6971a570_original.jpg?aki_policy=large,Joe,100%,t,t,https://a0.muscache.com/im/pictures/ba7f827f-97ed-4952-bd88-4a80fa971a0e.jpg?aki_policy=profile_small,https://a0.muscache.com/im/pictures/ba7f827f-97ed-4952-bd88-4a80fa971a0e.jpg?aki_policy=profile_x_medium,,Loft,1,1,150.00,1220.00,4305.00,25,-122.4153345,37.79579579,111,98,1.11
21914,https://www.airbnb.com/rooms/21914,A Friendly Room Apt. Style-UCSF/USF-San Francisco,https://a0.muscache.com/im/pictures/acf124ef-f0f8-4bbf-887d-39f849b27f3b.jpg?aki_policy=large,Aaron,100%,f,t,https://a0.muscache.com/im/users/21994/profile_pic/1428380894/original.jpg?aki_policy=profile_small,https://a0.muscache.com/im/users/21994/profile_pic/1428380894/original.jpg?aki_policy=profile_x_medium,Cole Valley,Apartment,1,4,65.00,490.00,1685.00,365,-122.4525132,37.7648003,14,78,0.17
23540,https://www.airbnb.com/rooms/23540,Modern in-Law Unit in the Happening,https://a0.muscache.com/im/pictures/124434/05509d6c_original.jpg?aki_policy=large,Daniel & Svetlana,100%,f,t,https://a0.muscache.com/im/users/92400/profile_pic/1268604125/original.jpg?aki_policy=profile_small,https://a0.muscache.com/im/users/92400/profile_pic/1268604125/original.jpg?aki_policy=profile_x_medium,Mission District,Guest suite,2,1,225.00,1500.00,5000.00,84,-122.4198382,37.75065033,93,97,0.91
23611,https://www.airbnb.com/rooms/23611,Bernal Heights Gem with Fab Views !,https://a0.muscache.com/im/pictures/124428/49cc0147_original.jpg?aki_policy=large,Cecilia,100%,t,t,https://a0.muscache.com/im/users/18732/profile_pic/1269218075/original.jpg?aki_policy=profile_small,https://a0.muscache.com/im/users/18732/profile_pic/1269218075/original.jpg?aki_policy=profile_x_medium,Bernal Heights,Apartment,1,0.5,95.00,750.00,2800.00,335,-122.4120681,37.74556319,221,98,2.19
23630,https://www.airbnb.com/rooms/23630,Castro Guest Suite With Continental Breakfast,https://a0.muscache.com/im/pictures/452485/a20226fa_original.jpg?aki_policy=large,Daniel,100%,t,t,https://a0.muscache.com/im/users/93257/profile_pic/1350026013/original.jpg?aki_policy=profile_small,https://a0.muscache.com/im/users/93257/profile_pic/1350026013/original.jpg?aki_policy=profile_x_medium,The Castro,House,1,1,155.00,,,259,-122.4414323,37.75963016,324,97,3.27
23680,https://www.airbnb.com/rooms/23680,Central Location & Golden Gate View,https://a0.muscache.com/im/pictures/1dc9fc9b-7360-4f44-a825-430c8dbe69cf.jpg?aki_policy=large,Gia,100%,f,t,https://a0.muscache.com/im/users/93737/profile_pic/1268677020/original.jpg?aki_policy=profile_small,https://a0.muscache.com/im/users/93737/profile_pic/1268677020/original.jpg?aki_policy=profile_x_medium,Pacific Heights,Apartment,1,1,178.00,,,17,-122.4277325,37.7931804,22,99,0.22
24450,https://www.airbnb.com/rooms/24450,Atelier Noe 25 Studio in Noe Valley,https://a0.muscache.com/im/pictures/7b5db254-90d6-4242-9536-47af9d1caa77.jpg?aki_policy=large,Judith,100%,f,t,https://a0.muscache.com/im/pictures/user/9d3fe44e-9ff1-442a-b634-82095b58dfdf.jpg?aki_policy=profile_small,https://a0.muscache.com/im/pictures/user/9d3fe44e-9ff1-442a-b634-82095b58dfdf.jpg?aki_policy=profile_x_medium,,House,1,1,199.00,,,74,-122.436726,37.74884818,196,91,1.94
24463,https://www.airbnb.com/rooms/24463,"Potrero Hill ""Nest"" Quiet, Comfy & Convenient",https://a0.muscache.com/im/pictures/2736340/4f8445a8_original.jpg?aki_policy=large,Cathryn,100%,t,t,https://a0.muscache.com/im/users/99128/profile_pic/1269579142/original.jpg?aki_policy=profile_small,https://a0.muscache.com/im/users/99128/profile_pic/1269579142/original.jpg?aki_policy=profile_x_medium,Potrero Hill,Townhouse,1,1,155.00,1021.00,3200.00,141,-122.3991023,37.75644595,250,98,2.51
24685,https://www.airbnb.com/rooms/24685,Castro/Haight San Francisco,https://a0.muscache.com/im/pictures/132659/4f7d0b12_original.jpg?aki_policy=large,Alison,100%,t,t,https://a0.muscache.com/im/users/100567/profile_pic/1341248112/original.jpg?aki_policy=profile_small,https://a0.muscache.com/im/users/100567/profile_pic/1341248112/original.jpg?aki_policy=profile_x_medium,Lower Haight,Apartment,1,1,79.00,,,302,-122.438362,37.7716176,165,95,1.69
24723,https://www.airbnb.com/rooms/24723,Apartment-like rooms in PacHeights,https://a0.muscache.com/im/pictures/162101/84690917_original.jpg?aki_policy=large,Cynthia,100%,t,t,https://a0.muscache.com/im/users/100800/profile_pic/1441462438/original.jpg?aki_policy=profile_small,https://a0.muscache.com/im/users/100800/profile_pic/1441462438/original.jpg?aki_policy=profile_x_medium,Western Addition/NOPA,Guest suite,1,1,195.00,1049.00,3336.00,152,-122.4338611,37.78716465,250,95,2.47
25094,https://www.airbnb.com/rooms/25094,San Francisco's Luxury Oasis On Noe,https://a0.muscache.com/im/pictures/625b9802-97b8-47ad-88c4-233fc80692e1.jpg?aki_policy=large,Bruce,100%,t,t,https://a0.muscache.com/im/pictures/e6c2c222-ea5d-4f4b-b905-5ab579e1705a.jpg?aki_policy=profile_small,https://a0.muscache.com/im/pictures/e6c2c222-ea5d-4f4b-b905-5ab579e1705a.jpg?aki_policy=profile_x_medium,Noe Valley,House,1,1,150.00,,,303,-122.4312154,37.74187613,18,100,0.69
25463,https://www.airbnb.com/rooms/25463,Modern Zen in the Lower Haight,https://a0.muscache.com/im/pictures/749554/a2d30f5f_original.jpg?aki_policy=large,Patrick,100%,t,t,https://a0.muscache.com/im/pictures/user/4ca4abbe-b19b-4cf8-8c4b-783655090cf5.jpg?aki_policy=profile_small,https://a0.muscache.com/im/pictures/user/4ca4abbe-b19b-4cf8-8c4b-783655090cf5.jpg?aki_policy=profile_x_medium,Alamo Square,Townhouse,1,1,110.00,,,41,-122.4342115,37.77728949,367,98,3.87
25662,https://www.airbnb.com/rooms/25662,"Convenient, quiet, private!",https://a0.muscache.com/im/pictures/187496/07754eb5_original.jpg?aki_policy=large,Gayle,100%,t,t,https://a0.muscache.com/im/users/106005/profile_pic/1272869462/original.jpg?aki_policy=profile_small,https://a0.muscache.com/im/users/106005/profile_pic/1272869462/original.jpg?aki_policy=profile_x_medium,Potrero Hill,House,1,1,125.00,800.00,,288,-122.395409,37.76212202,280,95,2.85
25927,https://www.airbnb.com/rooms/25927,"CALEF HOUSE Rm 2, Priv Rm in Beaut SF Victorian",https://a0.muscache.com/im/pictures/40031640/6e957ef5_original.jpg?aki_policy=large,Ronda,100%,t,t,https://a0.muscache.com/im/users/109045/profile_pic/1271529697/original.jpg?aki_policy=profile_small,https://a0.muscache.com/im/users/109045/profile_pic/1271529697/original.jpg?aki_policy=profile_x_medium,Western Addition/NOPA,House,1,1.5,110.00,900.00,3100.00,324,-122.4303064,37.78894736,60,91,0.79
26488,https://www.airbnb.com/rooms/26488,Embarcadero High Rise with Views!,https://a0.muscache.com/im/pictures/256046/5cf76ac8_original.jpg?aki_policy=large,Micheal,,f,t,https://a0.muscache.com/im/users/112300/profile_pic/1317266056/original.jpg?aki_policy=profile_small,https://a0.muscache.com/im/users/112300/profile_pic/1317266056/original.jpg?aki_policy=profile_x_medium,South Beach,Apartment,1,0,1000.00,,,365,-122.3932944,37.79089911,48,97,0.48
27025,https://www.airbnb.com/rooms/27025,"Elegant, Antique Edwardian Apartment on Castro","https://a0.muscache.com/4ea/air/v2//pictures/d3842cbd-f8b3-4d06-b315-9fff6ab2d26b.jpg?t=r:w1200-h720-sfit,e:fjpg-c85",Luis,100%,t,t,https://a0.muscache.com/im/pictures/user/57272a7e-5570-43e5-8dd6-d65d30f0d680.jpg?aki_policy=profile_small,https://a0.muscache.com/im/pictures/user/57272a7e-5570-43e5-8dd6-d65d30f0d680.jpg?aki_policy=profile_x_medium,The Castro,Apartment,1,1,175.00,1100.00,3700.00,126,-122.4313644,37.76297968,129,100,1.29
27028,https://www.airbnb.com/rooms/27028,Secret Mission Garden,https://a0.muscache.com/im/pictures/626559/33587bfa_original.jpg?aki_policy=large,Ivan & Wendy,100%,t,t,https://a0.muscache.com/im/users/7149/profile_pic/1259098370/original.jpg?aki_policy=profile_small,https://a0.muscache.com/im/users/7149/profile_pic/1259098370/original.jpg?aki_policy=profile_x_medium,Mission District,Condominium,1,1,199.00,9999.00,9999.00,0,-122.4215808,37.76097556,23,96,0.58
29557,https://www.airbnb.com/rooms/29557,gigi's bed and breakfast,https://a0.muscache.com/im/pictures/250504/7d0c59d7_original.jpg?aki_policy=large,Gigi,100%,f,t,https://a0.muscache.com/im/users/126036/profile_pic/1316459910/original.jpg?aki_policy=profile_small,https://a0.muscache.com/im/users/126036/profile_pic/1316459910/original.jpg?aki_policy=profile_x_medium,Richmond District,House,1,1,155.00,1000.00,,278,-122.5051832,37.77930832,33,99,0.34
32027,https://www.airbnb.com/rooms/32027,Luxury Two Bedroom Two Bath Suite - Lower Level.,https://a0.muscache.com/im/pictures/4210b51b-ca15-46f5-bba0-f269f999bd89.jpg?aki_policy=large,Jack,100%,f,t,https://a0.muscache.com/im/pictures/user/d391fe27-3a2f-4675-9053-05b12efc69bb.jpg?aki_policy=profile_small,https://a0.muscache.com/im/pictures/user/d391fe27-3a2f-4675-9053-05b12efc69bb.jpg?aki_policy=profile_x_medium,The Castro,Apartment,2,2,325.00,1600.00,6500.00,342,-122.4372922,37.76125915,2,90,0.04
32414,https://www.airbnb.com/rooms/32414,"Cozy, Sunny and Private Space",https://a0.muscache.com/im/pictures/693795/b4a6ff70_original.jpg?aki_policy=large,Lisa,100%,f,t,https://a0.muscache.com/im/users/140251/profile_pic/1292728159/original.jpg?aki_policy=profile_small,https://a0.muscache.com/im/users/140251/profile_pic/1292728159/original.jpg?aki_policy=profile_x_medium,Bernal Heights,Apartment,1,1,150.00,950.00,2700.00,217,-122.4125909,37.74025451,93,96,0.95
32802,https://www.airbnb.com/rooms/32802,Garden Flat in Telegraph Hill,https://a0.muscache.com/im/pictures/185778/68e0970d_original.jpg?aki_policy=large,Bosco,100%,f,t,https://a0.muscache.com/im/pictures/820c4cab-6fe1-48f3-9824-4e8fe414733f.jpg?aki_policy=profile_small,https://a0.muscache.com/im/pictures/820c4cab-6fe1-48f3-9824-4e8fe414733f.jpg?aki_policy=profile_x_medium,Telegraph Hill,Apartment,1,1,195.00,,,1,-122.4046102,37.79834682,28,99,0.28
33577,https://www.airbnb.com/rooms/33577,Potrero Hill Garden Suite,https://a0.muscache.com/im/pictures/a519ea4c-8bb1-45bb-9e04-0ef53b8fcefa.jpg?aki_policy=large,Kepa,100%,t,t,https://a0.muscache.com/im/pictures/user/9fb305b5-f77c-4245-9d5e-96eb158b8d90.jpg?aki_policy=profile_small,https://a0.muscache.com/im/pictures/user/9fb305b5-f77c-4245-9d5e-96eb158b8d90.jpg?aki_policy=profile_x_medium,Potrero Hill,House,1,1,230.00,,,316,-122.3975009,37.76514606,579,99,6.46
33578,https://www.airbnb.com/rooms/33578,Potrero Hill Garden Lookout,https://a0.muscache.com/im/pictures/546799/92f5004e_original.jpg?aki_policy=large,Kepa,100%,t,t,https://a0.muscache.com/im/pictures/user/9fb305b5-f77c-4245-9d5e-96eb158b8d90.jpg?aki_policy=profile_small,https://a0.muscache.com/im/pictures/user/9fb305b5-f77c-4245-9d5e-96eb158b8d90.jpg?aki_policy=profile_x_medium,Potrero Hill,House,1,1,230.00,,,319,-122.3973047,37.76525619,533,99,5.56
38607,https://www.airbnb.com/rooms/38607,Beautiful Upscale House Private BR,https://a0.muscache.com/im/pictures/844895/8f129457_original.jpg?aki_policy=large,Jonathan,100%,t,t,https://a0.muscache.com/im/users/165574/profile_pic/1354133311/original.jpg?aki_policy=profile_small,https://a0.muscache.com/im/users/165574/profile_pic/1354133311/original.jpg?aki_policy=profile_x_medium,Presidio Heights,House,1,1,119.00,,,6,-122.4580923,37.78197462,181,96,1.85
39174,https://www.airbnb.com/rooms/39174,Bette's New Place,https://a0.muscache.com/im/pictures/14761467/a50271e4_original.jpg?aki_policy=large,Annette,97%,f,t,https://a0.muscache.com/im/pictures/d8938245-cc5e-4d01-8131-6006c8e934a5.jpg?aki_policy=profile_small,https://a0.muscache.com/im/pictures/d8938245-cc5e-4d01-8131-6006c8e934a5.jpg?aki_policy=profile_x_medium,Noe Valley,Guest suite,1,1,107.00,,3200.00,365,-122.424885,37.74830167,20,96,0.24
39418,https://www.airbnb.com/rooms/39418,"Comfortable Home Base, Popular Area",https://a0.muscache.com/im/pictures/220264/34777dc7_original.jpg?aki_policy=large,Therese And Nelson,100%,f,t,https://a0.muscache.com/im/users/169184/profile_pic/1362604872/original.jpg?aki_policy=profile_small,https://a0.muscache.com/im/users/169184/profile_pic/1362604872/original.jpg?aki_policy=profile_x_medium,Bernal Heights,Apartment,0,1,100.00,,2300.00,278,-122.4205486,37.74092695,21,98,0.25
40092,https://www.airbnb.com/rooms/40092,Cute Private Apt in the hip Mission,https://a0.muscache.com/im/pictures/29527570/6a86b59f_original.jpg?aki_policy=large,Brian & Leah,94%,t,t,https://a0.muscache.com/im/users/172182/profile_pic/1377881609/original.jpg?aki_policy=profile_small,https://a0.muscache.com/im/users/172182/profile_pic/1377881609/original.jpg?aki_policy=profile_x_medium,Mission District,Apartment,1,,131.00,1200.00,4100.00,191,-122.419693,37.76016369,95,92,0.99
41055,https://www.airbnb.com/rooms/41055,Cozy Castro Cottage with Cat,https://a0.muscache.com/im/pictures/652455/23b2f4fb_original.jpg?aki_policy=large,Chas,90%,f,t,https://a0.muscache.com/im/pictures/ab609821-a596-4111-9ae9-1b6fdd919c74.jpg?aki_policy=profile_small,https://a0.muscache.com/im/pictures/ab609821-a596-4111-9ae9-1b6fdd919c74.jpg?aki_policy=profile_x_medium,The Castro,House,1,1,159.00,1199.00,4299.00,247,-122.4333547,37.76125009,38,94,0.39
41172,https://www.airbnb.com/rooms/41172,Sue's Place,https://a0.muscache.com/im/pictures/29903170/ce66ed60_original.jpg?aki_policy=large,Sue,100%,t,t,https://a0.muscache.com/im/pictures/8da22808-6497-4539-8dea-8037550917e5.jpg?aki_policy=profile_small,https://a0.muscache.com/im/pictures/8da22808-6497-4539-8dea-8037550917e5.jpg?aki_policy=profile_x_medium,Bernal Heights,House,1,2,128.00,875.00,,308,-122.4176301,37.74082734,199,98,2.06
41399,https://www.airbnb.com/rooms/41399,"Heart of San Francisco, the Mission",https://a0.muscache.com/im/pictures/f1432fd1-ec3e-470b-98b7-f7d28601b5f8.jpg?aki_policy=large,Anton,90%,t,t,https://a0.muscache.com/im/users/180530/profile_pic/1280104918/original.jpg?aki_policy=profile_small,https://a0.muscache.com/im/users/180530/profile_pic/1280104918/original.jpg?aki_policy=profile_x_medium,Mission District,Apartment,2,1,290.00,2450.00,7500.00,321,-122.4186619,37.75610669,69,96,0.98
41423,https://www.airbnb.com/rooms/41423,Guest Cottage - SF,https://a0.muscache.com/im/pictures/258897/4a40b3c7_original.jpg?aki_policy=large,Dana,83%,f,t,https://a0.muscache.com/im/users/180715/profile_pic/1433120733/original.jpg?aki_policy=profile_small,https://a0.muscache.com/im/users/180715/profile_pic/1433120733/original.jpg?aki_policy=profile_x_medium,Glen Park,House,0,1,126.00,690.00,2500.00,309,-122.4330159,37.73556832,145,89,1.5
41609,https://www.airbnb.com/rooms/41609,Spacious Quiet SF Downtown Retreat,https://a0.muscache.com/im/pictures/30793350/b05f8f09_original.jpg?aki_policy=large,Peter,100%,f,t,https://a0.muscache.com/im/users/54299/profile_pic/1287965144/original.jpg?aki_policy=profile_small,https://a0.muscache.com/im/users/54299/profile_pic/1287965144/original.jpg?aki_policy=profile_x_medium,Nob Hill,Condominium,1,1,170.00,,4419.00,278,-122.412916,37.79001329,13,98,0.14
42403,https://www.airbnb.com/rooms/42403,Captain's Quarters,https://a0.muscache.com/im/pictures/237833/8fd24d7f_original.jpg?aki_policy=large,Annette,97%,f,t,https://a0.muscache.com/im/pictures/d8938245-cc5e-4d01-8131-6006c8e934a5.jpg?aki_policy=profile_small,https://a0.muscache.com/im/pictures/d8938245-cc5e-4d01-8131-6006c8e934a5.jpg?aki_policy=profile_x_medium,Bernal Heights,Apartment,0,1,85.00,,2500.00,341,-122.4185132,37.7335583,6,93,0.07
42408,https://www.airbnb.com/rooms/42408,"Crows Nest,Charming Jr. One Bedroom",https://a0.muscache.com/im/pictures/3469067/baf8a8c9_original.jpg?aki_policy=large,Annette,97%,f,t,https://a0.muscache.com/im/pictures/d8938245-cc5e-4d01-8131-6006c8e934a5.jpg?aki_policy=profile_small,https://a0.muscache.com/im/pictures/d8938245-cc5e-4d01-8131-6006c8e934a5.jpg?aki_policy=profile_x_medium,Bernal Heights,House,1,1,85.00,,2500.00,356,-122.4178129,37.7340436,4,87,0.05
42454,https://www.airbnb.com/rooms/42454,Bookish Mission District Flat with backyard,https://a0.muscache.com/im/pictures/2816464/547590b1_original.jpg?aki_policy=large,Gerard,100%,f,t,https://a0.muscache.com/im/users/177664/profile_pic/1279827149/original.jpg?aki_policy=profile_small,https://a0.muscache.com/im/users/177664/profile_pic/1279827149/original.jpg?aki_policy=profile_x_medium,Mission District,Apartment,1,1.5,93.00,600.00,,93,-122.4132586,37.75117094,9,89,0.11
42577,https://www.airbnb.com/rooms/42577,Garden View Hideaway - PET FRIENDLY,https://a0.muscache.com/im/pictures/9cea7a89-80ee-4d1a-a4ab-b1d4842b978b.jpg?aki_policy=large,Annette,97%,f,t,https://a0.muscache.com/im/pictures/d8938245-cc5e-4d01-8131-6006c8e934a5.jpg?aki_policy=profile_small,https://a0.muscache.com/im/pictures/d8938245-cc5e-4d01-8131-6006c8e934a5.jpg?aki_policy=profile_x_medium,Dogpatch,Guest suite,2,1,150.00,,4500.00,324,-122.3881318,37.75447178,2,80,0.04
43732,https://www.airbnb.com/rooms/43732,Argent Alley Panorama,https://a0.muscache.com/im/pictures/f0478fe7-7445-408a-8a6b-1be98d2026ec.jpg?aki_policy=large,Annette,97%,f,t,https://a0.muscache.com/im/pictures/d8938245-cc5e-4d01-8131-6006c8e934a5.jpg?aki_policy=profile_small,https://a0.muscache.com/im/pictures/d8938245-cc5e-4d01-8131-6006c8e934a5.jpg?aki_policy=profile_x_medium,Twin Peaks,Apartment,1,1,120.00,,3600.00,352,-122.4438536,37.75191264,5,88,0.07
43778,https://www.airbnb.com/rooms/43778,Lyon's Den,https://a0.muscache.com/im/pictures/251321/eba1e515_original.jpg?aki_policy=large,Annette,97%,f,t,https://a0.muscache.com/im/pictures/d8938245-cc5e-4d01-8131-6006c8e934a5.jpg?aki_policy=profile_small,https://a0.muscache.com/im/pictures/d8938245-cc5e-4d01-8131-6006c8e934a5.jpg?aki_policy=profile_x_medium,Haight-Ashbury,Guest suite,2,1,120.00,,3300.00,348,-122.4408369,37.7727162,8,56,0.08
44032,https://www.airbnb.com/rooms/44032,Secret Lounge in The Mission,https://a0.muscache.com/im/pictures/b5498832-cc8c-48de-90a0-4e14edae5e4c.jpg?aki_policy=large,David + Tina,100%,t,t,https://a0.muscache.com/im/users/98733/profile_pic/1269533518/original.jpg?aki_policy=profile_small,https://a0.muscache.com/im/users/98733/profile_pic/1269533518/original.jpg?aki_policy=profile_x_medium,Mission District,Apartment,1,1,95.00,,2450.00,138,-122.4120698,37.75145024,278,97,2.87
44680,https://www.airbnb.com/rooms/44680,Cute Noe/Mission Apartment,https://a0.muscache.com/im/pictures/a0184ad9-4a9c-490c-98e5-17aad712ecb2.jpg?aki_policy=large,Paul,100%,f,t,https://a0.muscache.com/im/users/196626/profile_pic/1281394907/original.jpg?aki_policy=profile_small,https://a0.muscache.com/im/users/196626/profile_pic/1281394907/original.jpg?aki_policy=profile_x_medium,Mission District,Apartment,1,1,175.00,1200.00,3750.00,38,-122.421645,37.75120853,3,100,0.03
45299,https://www.airbnb.com/rooms/45299,Private Castro Studio with 2 beds,https://a0.muscache.com/im/pictures/687134/d677d8f0_original.jpg?aki_policy=large,Chas,90%,f,t,https://a0.muscache.com/im/pictures/ab609821-a596-4111-9ae9-1b6fdd919c74.jpg?aki_policy=profile_small,https://a0.muscache.com/im/pictures/ab609821-a596-4111-9ae9-1b6fdd919c74.jpg?aki_policy=profile_x_medium,The Castro,Apartment,0,1,116.00,900.00,3500.00,14,-122.4333063,37.76068104,109,94,1.12
45956,https://www.airbnb.com/rooms/45956,Private Room  Heart of City --The Silver Room,https://a0.muscache.com/im/pictures/f2f0f4a9-0ecd-455d-a8a0-f32309bb88a9.jpg?aki_policy=large,Jose,96%,t,t,https://a0.muscache.com/im/pictures/bbf29f40-6968-44f2-b42b-b6e68084dab3.jpg?aki_policy=profile_small,https://a0.muscache.com/im/pictures/bbf29f40-6968-44f2-b42b-b6e68084dab3.jpg?aki_policy=profile_x_medium,Lower Haight,Apartment,1,3,125.00,600.00,1950.00,16,-122.4301613,37.7724811,55,95,0.78
47486,https://www.airbnb.com/rooms/47486,CACTUS COTTAGE  with easy parking/public transp.,https://a0.muscache.com/im/pictures/1105843/e804dd6d_original.jpg?aki_policy=large,Richard,100%,f,t,https://a0.muscache.com/im/users/215133/profile_pic/1299812750/original.jpg?aki_policy=profile_small,https://a0.muscache.com/im/users/215133/profile_pic/1299812750/original.jpg?aki_policy=profile_x_medium,Ingleside,House,1,1,78.00,,2250.00,233,-122.4686106,37.72535732,27,97,0.28
47682,https://www.airbnb.com/rooms/47682,One-bedroom apt.  Lafayette Park,https://a0.muscache.com/im/pictures/273479/60b3f9f5_original.jpg?aki_policy=large,Jay,100%,t,t,https://a0.muscache.com/im/users/216682/profile_pic/1284924580/original.jpg?aki_policy=profile_small,https://a0.muscache.com/im/users/216682/profile_pic/1284924580/original.jpg?aki_policy=profile_x_medium,Pacific Heights,Apartment,1,1,120.00,,3960.00,305,-122.4243122,37.79250377,25,96,0.26
51073,https://www.airbnb.com/rooms/51073,In the Heart of San Francisco,https://a0.muscache.com/im/pictures/9849064/3d405472_original.jpg?aki_policy=large,Michelle,,t,t,https://a0.muscache.com/im/users/234859/profile_pic/1346440370/original.jpg?aki_policy=profile_small,https://a0.muscache.com/im/users/234859/profile_pic/1346440370/original.jpg?aki_policy=profile_x_medium,SoMa,Apartment,1,1,180.00,950.00,,0,-122.4219948,37.77116329,144,99,1.51
51557,https://www.airbnb.com/rooms/51557,Centrally Located Victorian Studio,https://a0.muscache.com/im/pictures/376480/67b346ce_original.jpg?aki_policy=large,Len,100%,f,t,https://a0.muscache.com/im/users/237200/profile_pic/1328047243/original.jpg?aki_policy=profile_small,https://a0.muscache.com/im/users/237200/profile_pic/1328047243/original.jpg?aki_policy=profile_x_medium,Duboce Triangle,Loft,1,1,119.00,958.00,3990.00,285,-122.428339,37.7712146,103,98,1.08
51773,https://www.airbnb.com/rooms/51773,Prime Location - Small Cozy Room,https://a0.muscache.com/im/pictures/8985258/91b6e2f8_original.jpg?aki_policy=large,Jay,100%,t,t,https://a0.muscache.com/im/users/216682/profile_pic/1284924580/original.jpg?aki_policy=profile_small,https://a0.muscache.com/im/users/216682/profile_pic/1284924580/original.jpg?aki_policy=profile_x_medium,Pacific Heights,Apartment,1,0,55.00,,1475.00,325,-122.4259984,37.79311697,158,92,1.79
52713,https://www.airbnb.com/rooms/52713,Nob Hill room with a great view,https://a0.muscache.com/im/pictures/2646705/0412fb99_original.jpg?aki_policy=large,Michael,,f,t,https://a0.muscache.com/im/users/244235/profile_pic/1285349269/original.jpg?aki_policy=profile_small,https://a0.muscache.com/im/users/244235/profile_pic/1285349269/original.jpg?aki_policy=profile_x_medium,Nob Hill,Apartment,1,,99.00,799.00,2439.00,116,-122.4127171,37.79666781,165,89,1.73
54518,https://www.airbnb.com/rooms/54518,Financial District Corporate Condo,https://a0.muscache.com/im/pictures/319307/6939873f_original.jpg?aki_policy=large,Kathy,100%,f,t,https://a0.muscache.com/im/pictures/d39cae8c-d525-4c0c-9e23-ec38291c70df.jpg?aki_policy=profile_small,https://a0.muscache.com/im/pictures/d39cae8c-d525-4c0c-9e23-ec38291c70df.jpg?aki_policy=profile_x_medium,Financial District,Condominium,1,1,240.00,1600.00,4300.00,233,-122.4007941,37.79330087,16,88,0.19
54634,https://www.airbnb.com/rooms/54634,Studio Apartment Lafayette Park,https://a0.muscache.com/im/pictures/8815756/ce578cc7_original.jpg?aki_policy=large,Jay,100%,t,t,https://a0.muscache.com/im/users/216682/profile_pic/1284924580/original.jpg?aki_policy=profile_small,https://a0.muscache.com/im/users/216682/profile_pic/1284924580/original.jpg?aki_policy=profile_x_medium,Pacific Heights,Apartment,1,1,115.00,,3180.00,342,-122.4264979,37.79166446,34,92,0.36
55632,https://www.airbnb.com/rooms/55632,"â¤ï¸ Fantastic Big Luxury Apartment, Sleeps 4",https://a0.muscache.com/im/pictures/cd43f52e-8406-4945-9b04-64c145f2d677.jpg?aki_policy=large,Paul & Debbie,100%,t,t,https://a0.muscache.com/im/pictures/user/633ab5d4-0536-477b-8b2f-fd7caf7b5cea.jpg?aki_policy=profile_small,https://a0.muscache.com/im/pictures/user/633ab5d4-0536-477b-8b2f-fd7caf7b5cea.jpg?aki_policy=profile_x_medium,Richmond District,Apartment,1,1,130.00,,2995.00,261,-122.4861875,37.77959493,10,94,0.11
55636,https://www.airbnb.com/rooms/55636,â¤ï¸ Fantastic luxury Apt. Great View,https://a0.muscache.com/im/pictures/0e51a14c-979a-44cb-9a08-ebcb381bff00.jpg?aki_policy=large,Paul & Debbie,100%,t,t,https://a0.muscache.com/im/pictures/user/633ab5d4-0536-477b-8b2f-fd7caf7b5cea.jpg?aki_policy=profile_small,https://a0.muscache.com/im/pictures/user/633ab5d4-0536-477b-8b2f-fd7caf7b5cea.jpg?aki_policy=profile_x_medium,Twin Peaks,Apartment,1,1,130.00,,3295.00,310,-122.4447857,37.74889402,26,95,0.28
56200,https://www.airbnb.com/rooms/56200,Furnished Grand Victorian Flat,https://a0.muscache.com/im/pictures/534223/179f1cc8_original.jpg?aki_policy=large,Christie,100%,f,t,https://a0.muscache.com/im/users/266101/profile_pic/1299289519/original.jpg?aki_policy=profile_small,https://a0.muscache.com/im/users/266101/profile_pic/1299289519/original.jpg?aki_policy=profile_x_medium,Western Addition/NOPA,House,1,1,132.00,,4800.00,226,-122.4395658,37.78628892,266,98,2.81
56621,https://www.airbnb.com/rooms/56621,Prime Location - Large Private Room,https://a0.muscache.com/im/pictures/8984970/95e031b6_original.jpg?aki_policy=large,Jay,100%,t,t,https://a0.muscache.com/im/users/216682/profile_pic/1284924580/original.jpg?aki_policy=profile_small,https://a0.muscache.com/im/users/216682/profile_pic/1284924580/original.jpg?aki_policy=profile_x_medium,Pacific Heights,Apartment,1,,63.00,,1600.00,335,-122.4245818,37.79215669,118,92,1.25
57676,https://www.airbnb.com/rooms/57676,"Bartlett Gardens: Spacious, bright!",https://a0.muscache.com/im/pictures/15516119/fc4f2e31_original.jpg?aki_policy=large,Jessica And Sebouh,94%,t,t,https://a0.muscache.com/im/users/142882/profile_pic/1414130558/original.jpg?aki_policy=profile_small,https://a0.muscache.com/im/users/142882/profile_pic/1414130558/original.jpg?aki_policy=profile_x_medium,Mission District,Apartment,1,1,99.00,,2600.00,340,-122.4193257,37.75762489,93,96,1.05
59314,https://www.airbnb.com/rooms/59314,Cute and Cozy Condo near Moscone,https://a0.muscache.com/im/pictures/1040899/4627a03f_original.jpg?aki_policy=large,Angela,75%,t,t,https://a0.muscache.com/im/users/284785/profile_pic/1383022056/original.jpg?aki_policy=profile_small,https://a0.muscache.com/im/users/284785/profile_pic/1383022056/original.jpg?aki_policy=profile_x_medium,SoMa,Condominium,2,1,225.00,1400.00,4100.00,331,-122.4104686,37.7769789,125,97,1.35
59344,https://www.airbnb.com/rooms/59344,Private and Quiet Noe Valley Studio,https://a0.muscache.com/im/pictures/662862/9d9b540f_original.jpg?aki_policy=large,John,100%,t,t,https://a0.muscache.com/im/users/284917/profile_pic/1291779942/original.jpg?aki_policy=profile_small,https://a0.muscache.com/im/users/284917/profile_pic/1291779942/original.jpg?aki_policy=profile_x_medium,Noe Valley,Guest suite,1,1,135.00,950.00,3700.00,258,-122.4286438,37.74565481,264,98,2.83
59381,https://www.airbnb.com/rooms/59381,Ultra Panoramic View Contemporary,https://a0.muscache.com/im/pictures/9904168/479ff590_original.jpg?aki_policy=large,Bill,100%,f,t,https://a0.muscache.com/im/pictures/user/1fe7c47f-bdb7-4112-ab86-ea35b9cd69fb.jpg?aki_policy=profile_small,https://a0.muscache.com/im/pictures/user/1fe7c47f-bdb7-4112-ab86-ea35b9cd69fb.jpg?aki_policy=profile_x_medium,Russian Hill,Condominium,1,1,109.00,,3300.00,31,-122.4159579,37.8031015,199,96,2.26
59702,https://www.airbnb.com/rooms/59702,Garden Cottage Charming!,https://a0.muscache.com/im/pictures/362832/34ad0638_original.jpg?aki_policy=large,Toby,100%,t,t,https://a0.muscache.com/im/users/287136/profile_pic/1313427286/original.jpg?aki_policy=profile_small,https://a0.muscache.com/im/users/287136/profile_pic/1313427286/original.jpg?aki_policy=profile_x_medium,Bernal Heights,Cottage,1,1,150.00,,,308,-122.414088,37.74208535,177,98,2.04
59831,https://www.airbnb.com/rooms/59831,Lovely quiet private room in Home ,https://a0.muscache.com/im/pictures/364036/08cad056_original.jpg?aki_policy=large,Lawrence,,f,t,https://a0.muscache.com/im/users/287859/profile_pic/1347654035/original.jpg?aki_policy=profile_small,https://a0.muscache.com/im/users/287859/profile_pic/1347654035/original.jpg?aki_policy=profile_x_medium,Outer Sunset,House,1,1,100.00,,3000.00,365,-122.4917779,37.75673543,1,20,0.01
60365,https://www.airbnb.com/rooms/60365,Central Victorian 3-Bedrms-2Baths!,https://a0.muscache.com/im/pictures/464411/824b2d4f_original.jpg?aki_policy=large,Emilie,100%,f,t,https://a0.muscache.com/im/users/279544/profile_pic/1297395365/original.jpg?aki_policy=profile_small,https://a0.muscache.com/im/users/279544/profile_pic/1297395365/original.jpg?aki_policy=profile_x_medium,Duboce Triangle,House,3,2,450.00,,6900.00,220,-122.4349623,37.76965594,200,97,2.16
60659,https://www.airbnb.com/rooms/60659,Lovely Flat on Telegraph Hill,https://a0.muscache.com/im/pictures/370082/f7edb982_original.jpg?aki_policy=large,Margie,100%,f,t,https://a0.muscache.com/im/users/292491/profile_pic/1327201011/original.jpg?aki_policy=profile_small,https://a0.muscache.com/im/users/292491/profile_pic/1327201011/original.jpg?aki_policy=profile_x_medium,Telegraph Hill,Apartment,1,2,150.00,875.00,,49,-122.4092535,37.80240771,178,98,1.94
62519,https://www.airbnb.com/rooms/62519,Lovely Room in Charming Edwardian,https://a0.muscache.com/im/pictures/57423808/f7dcbdee_original.jpg?aki_policy=large,Abhay,100%,t,t,https://a0.muscache.com/im/users/304426/profile_pic/1426917739/original.jpg?aki_policy=profile_small,https://a0.muscache.com/im/users/304426/profile_pic/1426917739/original.jpg?aki_policy=profile_x_medium,Noe Valley,Apartment,1,1,100.00,,,0,-122.4299312,37.74182583,35,97,0.82
62651,https://www.airbnb.com/rooms/62651,GORGEOUS SAN FRANCISCO HOME,https://a0.muscache.com/im/pictures/48161673/dcf29225_original.jpg?aki_policy=large,Agnieszka,57%,f,t,https://a0.muscache.com/im/users/185923/profile_pic/1323395057/original.jpg?aki_policy=profile_small,https://a0.muscache.com/im/users/185923/profile_pic/1323395057/original.jpg?aki_policy=profile_x_medium,Mission District,House,3,2.5,1100.00,5200.00,,339,-122.4243211,37.762455,48,96,0.56
63247,https://www.airbnb.com/rooms/63247,Lovely open plan en-suite bed/bath,https://a0.muscache.com/im/pictures/388246/f95a4f91_original.jpg?aki_policy=large,Anne,100%,t,t,https://a0.muscache.com/im/pictures/4efdd51d-2f7d-4c39-bbfb-6ff53313e5e0.jpg?aki_policy=profile_small,https://a0.muscache.com/im/pictures/4efdd51d-2f7d-4c39-bbfb-6ff53313e5e0.jpg?aki_policy=profile_x_medium,Mission District,Guest suite,1,1,166.00,,,312,-122.4139752,37.74925779,267,92,2.87
63405,https://www.airbnb.com/rooms/63405,Private Suite in Mission,https://a0.muscache.com/im/pictures/15128569/46d3e316_original.jpg?aki_policy=large,Jessica And Sebouh,94%,t,t,https://a0.muscache.com/im/users/142882/profile_pic/1414130558/original.jpg?aki_policy=profile_small,https://a0.muscache.com/im/users/142882/profile_pic/1414130558/original.jpg?aki_policy=profile_x_medium,Mission District,Guest suite,1,1,125.00,,2500.00,313,-122.4177063,37.75399609,190,94,2.13
64165,https://www.airbnb.com/rooms/64165,Great room in a fantastic location!,https://a0.muscache.com/im/pictures/3971579/f4b0cfec_original.jpg?aki_policy=large,Regina,100%,f,t,https://a0.muscache.com/im/users/237691/profile_pic/1376331996/original.jpg?aki_policy=profile_small,https://a0.muscache.com/im/users/237691/profile_pic/1376331996/original.jpg?aki_policy=profile_x_medium,Marina,Apartment,1,2,90.00,,2700.00,325,-122.4287407,37.80317361,62,99,0.73
65408,https://www.airbnb.com/rooms/65408,Sunny 2 bedroom with private deck and views,https://a0.muscache.com/im/pictures/1006580/e75648fa_original.jpg?aki_policy=large,Tasha,90%,f,t,https://a0.muscache.com/im/users/116319/profile_pic/1362205004/original.jpg?aki_policy=profile_small,https://a0.muscache.com/im/users/116319/profile_pic/1362205004/original.jpg?aki_policy=profile_x_medium,The Castro,Apartment,2,1,225.00,750.00,3000.00,274,-122.4321993,37.7609587,104,96,1.14
66119,https://www.airbnb.com/rooms/66119,Large garden studio apt. near Golden Gate Park,https://a0.muscache.com/im/pictures/660f2157-5cdb-4378-8875-bbbc06e239e1.jpg?aki_policy=large,Joe,67%,f,t,https://a0.muscache.com/im/pictures/82810497-bbab-4dc9-857b-cad47caac1cb.jpg?aki_policy=profile_small,https://a0.muscache.com/im/pictures/82810497-bbab-4dc9-857b-cad47caac1cb.jpg?aki_policy=profile_x_medium,Richmond District,Apartment,0,1,100.00,1050.00,,345,-122.4781239,37.77797943,95,83,1.11
66188,https://www.airbnb.com/rooms/66188,Spectacular Sutro Heights,https://a0.muscache.com/im/pictures/410939/e4484da8_original.jpg?aki_policy=large,Annette,97%,f,t,https://a0.muscache.com/im/pictures/d8938245-cc5e-4d01-8131-6006c8e934a5.jpg?aki_policy=profile_small,https://a0.muscache.com/im/pictures/d8938245-cc5e-4d01-8131-6006c8e934a5.jpg?aki_policy=profile_x_medium,Richmond District,Apartment,3,2,216.00,,5000.00,279,-122.5090602,37.77718605,12,96,0.14
68239,https://www.airbnb.com/rooms/68239,Beautiful 1bdr apt by Dolores Park in Mission,https://a0.muscache.com/im/pictures/1766331/78446c1d_original.jpg?aki_policy=large,Felipe,100%,t,t,https://a0.muscache.com/im/users/337833/profile_pic/1441663517/original.jpg?aki_policy=profile_small,https://a0.muscache.com/im/users/337833/profile_pic/1441663517/original.jpg?aki_policy=profile_x_medium,Noe Valley,Apartment,1,1,326.00,2630.00,9282.00,332,-122.4238661,37.75425726,35,99,0.39
69410,https://www.airbnb.com/rooms/69410,Private 1BR Inner Richmond Apt,https://a0.muscache.com/im/pictures/2897947/9a0f998a_original.jpg?aki_policy=large,Patrick,100%,f,t,https://a0.muscache.com/im/users/347624/profile_pic/1295047135/original.jpg?aki_policy=profile_small,https://a0.muscache.com/im/users/347624/profile_pic/1295047135/original.jpg?aki_policy=profile_x_medium,Richmond District,House,2,1,80.00,,2700.00,352,-122.4631894,37.77441984,48,98,0.55
69549,https://www.airbnb.com/rooms/69549,MISSION Outr BedRm3+Fridge+PvtBath ,https://a0.muscache.com/im/pictures/843557/5419fc44_original.jpg?aki_policy=large,Maria,82%,f,t,https://a0.muscache.com/im/users/305973/profile_pic/1295155681/original.jpg?aki_policy=profile_small,https://a0.muscache.com/im/users/305973/profile_pic/1295155681/original.jpg?aki_policy=profile_x_medium,Excelsior,House,1,1,46.00,,1375.00,227,-122.4264432,37.73026802,39,91,0.43
69553,https://www.airbnb.com/rooms/69553,MISSION Outr BedRmU3+MinFridge,https://a0.muscache.com/im/pictures/6480576/64f72e3a_original.jpg?aki_policy=large,Maria,82%,f,t,https://a0.muscache.com/im/users/305973/profile_pic/1295155681/original.jpg?aki_policy=profile_small,https://a0.muscache.com/im/users/305973/profile_pic/1295155681/original.jpg?aki_policy=profile_x_medium,Excelsior,House,1,1,46.00,,1175.00,356,-122.424784,37.73128161,26,82,0.29
69681,https://www.airbnb.com/rooms/69681,Panorama Pacific View - Pet Friendly,https://a0.muscache.com/im/pictures/441804/50bf971b_original.jpg?aki_policy=large,Annette,97%,f,t,https://a0.muscache.com/im/pictures/d8938245-cc5e-4d01-8131-6006c8e934a5.jpg?aki_policy=profile_small,https://a0.muscache.com/im/pictures/d8938245-cc5e-4d01-8131-6006c8e934a5.jpg?aki_policy=profile_x_medium,Richmond District,Apartment,3,2,170.00,,5000.00,339,-122.5092319,37.77706907,7,93,0.08
69685,https://www.airbnb.com/rooms/69685,North Beach Bungalow,https://a0.muscache.com/im/pictures/5839e40b-c003-4708-b7fa-b65868056b65.jpg?aki_policy=large,Annette,97%,f,t,https://a0.muscache.com/im/pictures/d8938245-cc5e-4d01-8131-6006c8e934a5.jpg?aki_policy=profile_small,https://a0.muscache.com/im/pictures/d8938245-cc5e-4d01-8131-6006c8e934a5.jpg?aki_policy=profile_x_medium,Telegraph Hill,Apartment,1,1,100.00,,3000.00,309,-122.4043655,37.80229923,2,80,0.02
70139,https://www.airbnb.com/rooms/70139,Noe Valley Eco-Escape +Maid Service,https://a0.muscache.com/im/pictures/674096/5d784ba3_original.jpg?aki_policy=large,Rachel,,f,t,https://a0.muscache.com/im/users/354456/profile_pic/1297181709/original.jpg?aki_policy=profile_small,https://a0.muscache.com/im/users/354456/profile_pic/1297181709/original.jpg?aki_policy=profile_x_medium,Noe Valley,Apartment,1,1,108.00,,3300.00,217,-122.4242403,37.74527429,10,98,0.13
70185,https://www.airbnb.com/rooms/70185,Classic Victorian in Ideal Location,https://a0.muscache.com/im/pictures/447410/688d71a1_original.jpg?aki_policy=large,Jaime,100%,f,t,https://a0.muscache.com/im/users/349322/profile_pic/1442813906/original.jpg?aki_policy=profile_small,https://a0.muscache.com/im/users/349322/profile_pic/1442813906/original.jpg?aki_policy=profile_x_medium,Cole Valley,Apartment,1,1,225.00,,,278,-122.4474439,37.7662949,30,97,0.35
70284,https://www.airbnb.com/rooms/70284,Monthly Shared Home for Students 1,https://a0.muscache.com/im/pictures/448742/e669ae0b_original.jpg?aki_policy=large,Darren & Friends,99%,f,t,https://a0.muscache.com/im/users/329072/profile_pic/1293574350/original.jpg?aki_policy=profile_small,https://a0.muscache.com/im/users/329072/profile_pic/1293574350/original.jpg?aki_policy=profile_x_medium,Chinatown,House,1,2.5,29.00,,880.00,226,-122.4063472,37.79363898,12,92,0.14
70753,https://www.airbnb.com/rooms/70753,Friendly Hostel with Community #1,https://a0.muscache.com/im/pictures/2168800/db476b95_original.jpg?aki_policy=large,Darren & Friends,99%,f,t,https://a0.muscache.com/im/users/329072/profile_pic/1293574350/original.jpg?aki_policy=profile_small,https://a0.muscache.com/im/users/329072/profile_pic/1293574350/original.jpg?aki_policy=profile_x_medium,Financial District,Hostel,1,,45.00,329.00,,13,-122.4045049,37.79446982,314,92,3.43
71645,https://www.airbnb.com/rooms/71645,Bernal Heights Northslope Studio,https://a0.muscache.com/im/pictures/89e31cbd-0572-42d5-bf05-78f666b45bb3.jpg?aki_policy=large,Jeff,100%,t,t,https://a0.muscache.com/im/pictures/b557eab1-3f7c-4b88-8bf7-a06453ca89e3.jpg?aki_policy=profile_small,https://a0.muscache.com/im/pictures/b557eab1-3f7c-4b88-8bf7-a06453ca89e3.jpg?aki_policy=profile_x_medium,Bernal Heights,Guest suite,1,1,109.00,,,139,-122.408412,37.74577519,86,98,2.91
71779,https://www.airbnb.com/rooms/71779,ã¹ã¿ã¸ãªã¢ãã¼ã,https://a0.muscache.com/im/pictures/4575599/7bcf9392_original.jpg?aki_policy=large,Fukuko,100%,f,t,https://a0.muscache.com/im/users/368770/profile_pic/1296418156/original.jpg?aki_policy=profile_small,https://a0.muscache.com/im/users/368770/profile_pic/1296418156/original.jpg?aki_policy=profile_x_medium,Richmond District,Apartment,1,1,80.00,,2700.00,365,-122.4646569,37.77624827,2,60,0.02
72365,https://www.airbnb.com/rooms/72365,Cozy loft in the center of SF. F1A,https://a0.muscache.com/im/pictures/8817680/fd8c3ca2_original.jpg?aki_policy=large,Eric,80%,f,t,https://a0.muscache.com/im/users/374909/profile_pic/1408813660/original.jpg?aki_policy=profile_small,https://a0.muscache.com/im/users/374909/profile_pic/1408813660/original.jpg?aki_policy=profile_x_medium,Alamo Square,Apartment,1,1,130.00,1200.00,3500.00,324,-122.4333409,37.77518125,63,89,0.7
72444,https://www.airbnb.com/rooms/72444,Friendly Hostel with Community #2,https://a0.muscache.com/im/pictures/2220270/fb81b9c8_original.jpg?aki_policy=large,Darren & Friends,99%,f,t,https://a0.muscache.com/im/users/329072/profile_pic/1293574350/original.jpg?aki_policy=profile_small,https://a0.muscache.com/im/users/329072/profile_pic/1293574350/original.jpg?aki_policy=profile_x_medium,Financial District,Hostel,1,,38.00,329.00,,6,-122.4044315,37.79308771,310,93,3.46
72921,https://www.airbnb.com/rooms/72921,Wonderful private 1 bedroom apt. F6,https://a0.muscache.com/im/pictures/477353/14009b3d_original.jpg?aki_policy=large,Eric,80%,f,t,https://a0.muscache.com/im/users/374909/profile_pic/1408813660/original.jpg?aki_policy=profile_small,https://a0.muscache.com/im/users/374909/profile_pic/1408813660/original.jpg?aki_policy=profile_x_medium,Alamo Square,Apartment,1,1,160.00,1000.00,3500.00,191,-122.431431,37.77587983,49,89,0.54
73011,https://www.airbnb.com/rooms/73011,"Modern SoMa 1-bdrm, views, balcony",https://a0.muscache.com/im/pictures/6029782/b274e02c_original.jpg?aki_policy=large,Jason,100%,f,t,https://a0.muscache.com/im/users/380056/profile_pic/1427338954/original.jpg?aki_policy=profile_small,https://a0.muscache.com/im/users/380056/profile_pic/1427338954/original.jpg?aki_policy=profile_x_medium,SoMa,Apartment,1,1,270.00,,5997.00,348,-122.4185467,37.7702573,29,98,0.39
74451,https://www.airbnb.com/rooms/74451,Views of SF from a nice studio F5,https://a0.muscache.com/im/pictures/3081578/1bf890bb_original.jpg?aki_policy=large,Eric,80%,f,t,https://a0.muscache.com/im/users/374909/profile_pic/1408813660/original.jpg?aki_policy=profile_small,https://a0.muscache.com/im/users/374909/profile_pic/1408813660/original.jpg?aki_policy=profile_x_medium,Alamo Square,Apartment,0,1,125.00,1200.00,3200.00,296,-122.4329757,37.77387671,17,96,0.21
74758,https://www.airbnb.com/rooms/74758, Mission Outr Rustic Pvt Bedroom ,https://a0.muscache.com/im/pictures/796064/05a9bf39_original.jpg?aki_policy=large,Maria,82%,f,t,https://a0.muscache.com/im/users/305973/profile_pic/1295155681/original.jpg?aki_policy=profile_small,https://a0.muscache.com/im/users/305973/profile_pic/1295155681/original.jpg?aki_policy=profile_x_medium,Excelsior,House,1,1,42.00,,1175.00,326,-122.4253181,37.73137082,32,87,0.36
75422,https://www.airbnb.com/rooms/75422,Mission Outr CozyBedRm4+Minfridge,https://a0.muscache.com/im/pictures/11467703/dfdb0845_original.jpg?aki_policy=large,Maria,82%,f,t,https://a0.muscache.com/im/users/305973/profile_pic/1295155681/original.jpg?aki_policy=profile_small,https://a0.muscache.com/im/users/305973/profile_pic/1295155681/original.jpg?aki_policy=profile_x_medium,Excelsior,House,1,1,42.00,,1100.00,364,-122.424727,37.73127949,9,100,0.11
75423,https://www.airbnb.com/rooms/75423,Mission Outr Big Precious Roomy Room,https://a0.muscache.com/im/pictures/5939114/07b2a542_original.jpg?aki_policy=large,Maria,82%,f,t,https://a0.muscache.com/im/users/305973/profile_pic/1295155681/original.jpg?aki_policy=profile_small,https://a0.muscache.com/im/users/305973/profile_pic/1295155681/original.jpg?aki_policy=profile_x_medium,Excelsior,House,1,1,44.00,,1125.00,353,-122.4249358,37.73048025,31,92,0.35
77175,https://www.airbnb.com/rooms/77175,Private Studio w/ Kitchenette &Bath,https://a0.muscache.com/im/pictures/94319510/5a3539e2_original.jpg?aki_policy=large,Tyler&Shoreh,100%,t,t,https://a0.muscache.com/im/users/395569/profile_pic/1440467910/original.jpg?aki_policy=profile_small,https://a0.muscache.com/im/users/395569/profile_pic/1440467910/original.jpg?aki_policy=profile_x_medium,Glen Park,House,1,1,135.00,,,104,-122.4337516,37.73838179,243,97,2.72
77932,https://www.airbnb.com/rooms/77932,"FAB BDRM w/ PrvtBATH, Patio,Fridge",https://a0.muscache.com/im/pictures/5938875/a8f026c3_original.jpg?aki_policy=large,Maria,82%,f,t,https://a0.muscache.com/im/users/305973/profile_pic/1295155681/original.jpg?aki_policy=profile_small,https://a0.muscache.com/im/users/305973/profile_pic/1295155681/original.jpg?aki_policy=profile_x_medium,Excelsior,House,1,1,49.00,,1400.00,318,-122.4245656,37.73133676,20,80,0.25
78651,https://www.airbnb.com/rooms/78651,Heart of the Mission: Hot spot,https://a0.muscache.com/im/pictures/12356728/f2f7be13_original.jpg?aki_policy=large,Jessica And Sebouh,94%,t,t,https://a0.muscache.com/im/users/142882/profile_pic/1414130558/original.jpg?aki_policy=profile_small,https://a0.muscache.com/im/users/142882/profile_pic/1414130558/original.jpg?aki_policy=profile_x_medium,Mission District,Apartment,1,2,75.00,,2100.00,316,-122.4192715,37.7561541,65,96,0.74
80394,https://www.airbnb.com/rooms/80394,Hideaway in the Haight,https://a0.muscache.com/im/pictures/31608934/ef22a8d9_original.jpg?aki_policy=large,Abla,,f,t,https://a0.muscache.com/im/users/126930/profile_pic/1362165668/original.jpg?aki_policy=profile_small,https://a0.muscache.com/im/users/126930/profile_pic/1362165668/original.jpg?aki_policy=profile_x_medium,,Apartment,1,1,145.00,1000.00,,98,-122.4425207,37.77065366,10,98,0.19
81158,https://www.airbnb.com/rooms/81158,Sweet 1 br Garden Apartment -  Lewhit Cottage,https://a0.muscache.com/im/pictures/f19c3407-8cbb-4e90-a648-35abd31bca34.jpg?aki_policy=large,Brent,100%,f,t,https://a0.muscache.com/im/users/439589/profile_pic/1300047133/original.jpg?aki_policy=profile_small,https://a0.muscache.com/im/users/439589/profile_pic/1300047133/original.jpg?aki_policy=profile_x_medium,Western Addition/NOPA,Condominium,1,1,83.00,600.00,2500.00,165,-122.4461787,37.78493236,11,93,0.12
81256,https://www.airbnb.com/rooms/81256,MISSION Outr BedRM#2 + 2Beds+Fridge,https://a0.muscache.com/im/pictures/7353876/4c105dd1_original.jpg?aki_policy=large,Maria,82%,f,t,https://a0.muscache.com/im/users/305973/profile_pic/1295155681/original.jpg?aki_policy=profile_small,https://a0.muscache.com/im/users/305973/profile_pic/1295155681/original.jpg?aki_policy=profile_x_medium,Excelsior,House,1,1,42.00,,1150.00,353,-122.4254703,37.73152154,19,78,0.22
81535,https://www.airbnb.com/rooms/81535,Heart of San Francisco D-town Loft,https://a0.muscache.com/im/pictures/1924560/4c7c2bf6_original.jpg?aki_policy=large,John,,f,t,https://a0.muscache.com/im/users/442443/profile_pic/1365191719/original.jpg?aki_policy=profile_small,https://a0.muscache.com/im/users/442443/profile_pic/1365191719/original.jpg?aki_policy=profile_x_medium,Civic Center,Loft,1,1,250.00,1500.00,4000.00,233,-122.4130967,37.78024683,14,97,0.21
82919,https://www.airbnb.com/rooms/82919,"Quiet Room in Victorian House, Parking, City View",https://a0.muscache.com/im/pictures/ce072443-0a5a-4648-bdc7-3c26d146e777.jpg?aki_policy=large,Rita,100%,f,t,https://a0.muscache.com/im/users/451471/profile_pic/1366538904/original.jpg?aki_policy=profile_small,https://a0.muscache.com/im/users/451471/profile_pic/1366538904/original.jpg?aki_policy=profile_x_medium,Bernal Heights,House,1,1,115.00,650.00,2205.00,46,-122.4209213,37.7342982,352,92,3.95
83257,https://www.airbnb.com/rooms/83257,Charming Lower Pac Hts Private Room,https://a0.muscache.com/im/pictures/622394/ac338fda_original.jpg?aki_policy=large,Kimberly,100%,f,f,https://a0.muscache.com/defaults/user_pic-50x50.png?v=3,https://a0.muscache.com/defaults/user_pic-225x225.png?v=3,Western Addition/NOPA,House,1,1,90.00,550.00,1500.00,310,-122.4435815,37.78528002,77,97,0.88
83553,https://www.airbnb.com/rooms/83553,Sutro Garden View,https://a0.muscache.com/im/pictures/570793/f5ae8ee5_original.jpg?aki_policy=large,Annette,97%,f,t,https://a0.muscache.com/im/pictures/d8938245-cc5e-4d01-8131-6006c8e934a5.jpg?aki_policy=profile_small,https://a0.muscache.com/im/pictures/d8938245-cc5e-4d01-8131-6006c8e934a5.jpg?aki_policy=profile_x_medium,Richmond District,Apartment,0,1,85.00,,2500.00,365,-122.5095181,37.77482554,6,100,0.07
84777,https://www.airbnb.com/rooms/84777,Upper Castro Studio,https://a0.muscache.com/im/pictures/2e42baff-f3ff-4f99-9be1-5600d082c9b0.jpg?aki_policy=large,John,100%,t,t,https://a0.muscache.com/im/pictures/user/5a50a670-4822-49c7-bb47-40ec2efc51b9.jpg?aki_policy=profile_small,https://a0.muscache.com/im/pictures/user/5a50a670-4822-49c7-bb47-40ec2efc51b9.jpg?aki_policy=profile_x_medium,,Guest suite,0,1,85.00,,,67,-122.4444487,37.75969351,192,94,2.17
85521,https://www.airbnb.com/rooms/85521,Art-filled Loft in sunny SF Mission,https://a0.muscache.com/im/pictures/44681d37-820a-44e7-b62c-9bf1a0654804.jpg?aki_policy=large,Wendy,100%,f,t,https://a0.muscache.com/im/pictures/7f3694b4-ffd2-4efa-9bd2-7ef4f7c7ec65.jpg?aki_policy=profile_small,https://a0.muscache.com/im/pictures/7f3694b4-ffd2-4efa-9bd2-7ef4f7c7ec65.jpg?aki_policy=profile_x_medium,Mission District,Loft,1,2,167.00,,5000.00,240,-122.4084674,37.75934916,8,76,0.09
87640,https://www.airbnb.com/rooms/87640,"Garden Room/En-suite, Private Entrance",https://a0.muscache.com/im/pictures/35703614/3462f909_original.jpg?aki_policy=large,Karin,100%,t,t,https://a0.muscache.com/im/users/479857/profile_pic/1418953450/original.jpg?aki_policy=profile_small,https://a0.muscache.com/im/users/479857/profile_pic/1418953450/original.jpg?aki_policy=profile_x_medium,Noe Valley,Guest suite,1,1,115.00,900.00,3600.00,220,-122.4289845,37.74549597,302,98,3.4
91957,https://www.airbnb.com/rooms/91957,Sunny SF Flat with 5*s,https://a0.muscache.com/im/pictures/669550/de15d167_original.jpg?aki_policy=large,Joy,100%,f,t,https://a0.muscache.com/im/users/495796/profile_pic/1302387465/original.jpg?aki_policy=profile_small,https://a0.muscache.com/im/users/495796/profile_pic/1302387465/original.jpg?aki_policy=profile_x_medium,,Apartment,2,1.5,300.00,1800.00,7000.00,339,-122.4492861,37.76193577,94,95,1.13
96383,https://www.airbnb.com/rooms/96383,Prime Location Bright Private Room,https://a0.muscache.com/im/pictures/651769/9a6a7b82_original.jpg?aki_policy=large,Jay,100%,t,t,https://a0.muscache.com/im/users/216682/profile_pic/1284924580/original.jpg?aki_policy=profile_small,https://a0.muscache.com/im/users/216682/profile_pic/1284924580/original.jpg?aki_policy=profile_x_medium,Pacific Heights,Apartment,1,,59.00,,1560.00,353,-122.4247552,37.79175618,128,94,1.46
99094,https://www.airbnb.com/rooms/99094,Spacious Edwardian Flat SF Mission,https://a0.muscache.com/im/pictures/669583/1134d3df_original.jpg?aki_policy=large,Marzio,,f,t,https://a0.muscache.com/im/pictures/eac7f370-0888-4694-9955-14d4fd675c8c.jpg?aki_policy=profile_small,https://a0.muscache.com/im/pictures/eac7f370-0888-4694-9955-14d4fd675c8c.jpg?aki_policy=profile_x_medium,Mission District,Apartment,2,1,185.00,1000.00,,0,-122.4243903,37.76808631,11,98,0.12
100710,https://www.airbnb.com/rooms/100710,Stylish Living in Liberty Hill,https://a0.muscache.com/im/pictures/707041/8727fe36_original.jpg?aki_policy=large,Jonathan,89%,f,t,https://a0.muscache.com/im/users/528857/profile_pic/1303569717/original.jpg?aki_policy=profile_small,https://a0.muscache.com/im/users/528857/profile_pic/1303569717/original.jpg?aki_policy=profile_x_medium,Mission District,Apartment,3,2,450.00,2900.00,8500.00,19,-122.4251775,37.75629056,10,100,0.12
102213,https://www.airbnb.com/rooms/102213,North Beach Hideaway / Quiet 1 BR,https://a0.muscache.com/im/pictures/698351/86041610_original.jpg?aki_policy=large,Chris,,f,t,https://a0.muscache.com/im/users/534566/profile_pic/1303769774/original.jpg?aki_policy=profile_small,https://a0.muscache.com/im/users/534566/profile_pic/1303769774/original.jpg?aki_policy=profile_x_medium,,Apartment,1,1,165.00,,4500.00,202,-122.4143079,37.80152408,107,97,1.21
102951,https://www.airbnb.com/rooms/102951,Monthly Shared Home for Students 2,https://a0.muscache.com/im/pictures/687151/afd276e1_original.jpg?aki_policy=large,Darren & Friends,99%,f,t,https://a0.muscache.com/im/users/329072/profile_pic/1293574350/original.jpg?aki_policy=profile_small,https://a0.muscache.com/im/users/329072/profile_pic/1293574350/original.jpg?aki_policy=profile_x_medium,Chinatown,House,1,2.5,29.00,,880.00,353,-122.4066364,37.79297219,4,95,0.06
105497,https://www.airbnb.com/rooms/105497,Private Room in San Francisco!,https://a0.muscache.com/im/pictures/67b0ad6d-cdb4-48e4-be21-30560687ea3a.jpg?aki_policy=large,Jamie,100%,f,t,https://a0.muscache.com/im/pictures/19328226-0462-4751-bf81-11e4fb6d94c7.jpg?aki_policy=profile_small,https://a0.muscache.com/im/pictures/19328226-0462-4751-bf81-11e4fb6d94c7.jpg?aki_policy=profile_x_medium,Outer Sunset,House,1,1,85.00,,,364,-122.4985248,37.75753702,3,100,0.29
106025,https://www.airbnb.com/rooms/106025,Gorgeous French Flat near Union Sq.,https://a0.muscache.com/im/pictures/828765/a9bfab96_original.jpg?aki_policy=large,Annette,90%,f,t,https://a0.muscache.com/im/pictures/user/83b5d9a9-0718-4901-a161-f5b58058d08f.jpg?aki_policy=profile_small,https://a0.muscache.com/im/pictures/user/83b5d9a9-0718-4901-a161-f5b58058d08f.jpg?aki_policy=profile_x_medium,Tenderloin,Apartment,2,1,160.00,,4200.00,301,-122.415146,37.78534948,59,98,0.67
108535,https://www.airbnb.com/rooms/108535,Canto Uccello,https://a0.muscache.com/im/pictures/940056/1f3f864a_original.jpg?aki_policy=large,Annette,97%,f,t,https://a0.muscache.com/im/pictures/d8938245-cc5e-4d01-8131-6006c8e934a5.jpg?aki_policy=profile_small,https://a0.muscache.com/im/pictures/d8938245-cc5e-4d01-8131-6006c8e934a5.jpg?aki_policy=profile_x_medium,Noe Valley,Guest suite,1,1,120.00,,3600.00,365,-122.4261578,37.74877853,14,100,0.16
109883,https://www.airbnb.com/rooms/109883,San Francisco Serenity/ lovely home,https://a0.muscache.com/im/pictures/3ee6eb2f-57e5-451e-a866-6f9aef471c3b.jpg?aki_policy=large,Adam,100%,f,t,https://a0.muscache.com/im/users/566147/profile_pic/1308546363/original.jpg?aki_policy=profile_small,https://a0.muscache.com/im/users/566147/profile_pic/1308546363/original.jpg?aki_policy=profile_x_medium,Balboa Terrace,Guest suite,2,1,125.00,850.00,3000.00,301,-122.4643456,37.73327365,294,94,3.38
110825,https://www.airbnb.com/rooms/110825,Charming Cottage with Bay View,https://a0.muscache.com/im/pictures/922366/9f47e105_original.jpg?aki_policy=large,Michael,100%,f,t,https://a0.muscache.com/im/users/568933/profile_pic/1324398859/original.jpg?aki_policy=profile_small,https://a0.muscache.com/im/users/568933/profile_pic/1324398859/original.jpg?aki_policy=profile_x_medium,Bayview,House,2,1,120.00,850.00,3200.00,339,-122.3892242,37.71548672,8,93,0.09
113211,https://www.airbnb.com/rooms/113211,Shelli's Student Home (1 Month Min),https://a0.muscache.com/im/pictures/740761/e08fa90d_original.jpg?aki_policy=large,Shelli,100%,f,t,https://a0.muscache.com/im/users/576273/profile_pic/1305072288/original.jpg?aki_policy=profile_small,https://a0.muscache.com/im/users/576273/profile_pic/1305072288/original.jpg?aki_policy=profile_x_medium,Chinatown,Hostel,1,2.5,29.00,,880.00,317,-122.4065867,37.79294123,13,96,0.18
114401,https://www.airbnb.com/rooms/114401,Room w/ a View in the Castro!,https://a0.muscache.com/im/pictures/769868/e5d9a774_original.jpg?aki_policy=large,George,100%,t,t,https://a0.muscache.com/im/users/580606/profile_pic/1398365723/original.jpg?aki_policy=profile_small,https://a0.muscache.com/im/users/580606/profile_pic/1398365723/original.jpg?aki_policy=profile_x_medium,The Castro,Condominium,1,1,125.00,1026.00,3787.00,297,-122.4300545,37.76101577,445,97,5.08
115242,https://www.airbnb.com/rooms/115242,Tel Hill-1 Bdr (+sep Queen bed alcove) & Parking,https://a0.muscache.com/im/pictures/6f39b799-9a57-44f8-b039-4e0bf0053df4.jpg?aki_policy=large,Dawn,100%,t,t,https://a0.muscache.com/im/users/582450/profile_pic/1305304366/original.jpg?aki_policy=profile_small,https://a0.muscache.com/im/users/582450/profile_pic/1305304366/original.jpg?aki_policy=profile_x_medium,Telegraph Hill,Condominium,1,1,275.00,1000.00,3200.00,221,-122.4082989,37.80591172,4,93,0.05
117955,https://www.airbnb.com/rooms/117955,Stunning 2bd2bt- Roofdeck + HOTTUB!,https://a0.muscache.com/im/pictures/ecacb2e0-98df-481d-b1e9-72907b7e7d83.jpg?aki_policy=large,Sumner,100%,t,t,https://a0.muscache.com/im/pictures/5b9b232b-3199-4c94-bdd8-debcad0fe56d.jpg?aki_policy=profile_small,https://a0.muscache.com/im/pictures/5b9b232b-3199-4c94-bdd8-debcad0fe56d.jpg?aki_policy=profile_x_medium,SoMa,Apartment,2,2,500.00,,,269,-122.4114224,37.77540808,80,96,1.14
122829,https://www.airbnb.com/rooms/122829,"Ground level Studio Flat, City Center",https://a0.muscache.com/im/pictures/18044556/24d613ab_original.jpg?aki_policy=large,Dave,100%,f,t,https://a0.muscache.com/im/users/615007/profile_pic/1306127250/original.jpg?aki_policy=profile_small,https://a0.muscache.com/im/users/615007/profile_pic/1306127250/original.jpg?aki_policy=profile_x_medium,Hayes Valley,Apartment,1,1,75.00,775.00,2700.00,124,-122.4214827,37.77380828,67,95,0.77
124011,https://www.airbnb.com/rooms/124011,Golden Gate Park Family Victorian,https://a0.muscache.com/im/pictures/53462963/f39fb742_original.jpg?aki_policy=large,Patrick,,f,t,https://a0.muscache.com/im/pictures/user/fa85118d-c9ae-4e78-86ad-d4ed1eee0031.jpg?aki_policy=profile_small,https://a0.muscache.com/im/pictures/user/fa85118d-c9ae-4e78-86ad-d4ed1eee0031.jpg?aki_policy=profile_x_medium,Inner Sunset,House,3,3,680.00,3150.00,8900.00,220,-122.4694756,37.7633399,8,97,0.17
126046,https://www.airbnb.com/rooms/126046,SF Victorian With Skyline Views ,https://a0.muscache.com/im/pictures/3675297/17eff5f2_original.jpg?aki_policy=large,Ryan And Lindsea,80%,f,t,https://a0.muscache.com/im/pictures/5fb64f8c-8151-4324-be47-2c0674e396b0.jpg?aki_policy=profile_small,https://a0.muscache.com/im/pictures/5fb64f8c-8151-4324-be47-2c0674e396b0.jpg?aki_policy=profile_x_medium,Haight-Ashbury,Apartment,3,1,170.00,2500.00,5950.00,352,-122.444936,37.76813476,80,97,0.95
128230,https://www.airbnb.com/rooms/128230,Castro Sanctuary,https://a0.muscache.com/im/pictures/9675cff2-7d96-431d-b1c2-eb816664d1a0.jpg?aki_policy=large,Maria,100%,t,t,https://a0.muscache.com/im/users/634277/profile_pic/1306557524/original.jpg?aki_policy=profile_small,https://a0.muscache.com/im/users/634277/profile_pic/1306557524/original.jpg?aki_policy=profile_x_medium,The Castro,Apartment,1,1,328.00,2100.00,,155,-122.4356478,37.75886842,130,99,1.49
130775,https://www.airbnb.com/rooms/130775,Emergency happy room-sink  UCSF/USF-San Francisco,https://a0.muscache.com/im/pictures/832695/e6cae5b3_original.jpg?aki_policy=large,Aaron,100%,f,t,https://a0.muscache.com/im/users/21994/profile_pic/1428380894/original.jpg?aki_policy=profile_small,https://a0.muscache.com/im/users/21994/profile_pic/1428380894/original.jpg?aki_policy=profile_x_medium,Cole Valley,Apartment,1,4,65.00,485.00,1685.00,346,-122.451262,37.76608594,10,86,0.14
130805,https://www.airbnb.com/rooms/130805,"Hip, Cozy, Creative, Victorian",https://a0.muscache.com/im/pictures/bb72d605-a696-41ed-8ab2-51a41e6cce66.jpg?aki_policy=large,Sue,100%,f,t,https://a0.muscache.com/im/users/643713/profile_pic/1317499476/original.jpg?aki_policy=profile_small,https://a0.muscache.com/im/users/643713/profile_pic/1317499476/original.jpg?aki_policy=profile_x_medium,Mission District,Apartment,1,1,110.00,700.00,2600.00,326,-122.4209193,37.75586066,61,99,0.7
132441,https://www.airbnb.com/rooms/132441,Calm Cool & Collected in Sunny Bernal Heights,https://a0.muscache.com/im/pictures/924375/0876b8cb_original.jpg?aki_policy=large,Kurt,100%,f,t,https://a0.muscache.com/im/pictures/user/9c2e4422-49a1-45b5-8e3b-09a8572448ba.jpg?aki_policy=profile_small,https://a0.muscache.com/im/pictures/user/9c2e4422-49a1-45b5-8e3b-09a8572448ba.jpg?aki_policy=profile_x_medium,,House,1,1,69.00,560.00,,132,-122.4229943,37.73973681,92,95,1.06
134015,https://www.airbnb.com/rooms/134015,"Marina location, rooftop GGB views+ private deck!",https://a0.muscache.com/im/pictures/17005789/dfa32d47_original.jpg?aki_policy=large,Heidi,100%,f,t,https://a0.muscache.com/im/users/657837/profile_pic/1307058605/original.jpg?aki_policy=profile_small,https://a0.muscache.com/im/users/657837/profile_pic/1307058605/original.jpg?aki_policy=profile_x_medium,Marina,Condominium,2,1,275.00,2700.00,8800.00,14,-122.4258887,37.80356039,66,97,0.77
137546,https://www.airbnb.com/rooms/137546,Bernal Heights Gem near SF Mission,https://a0.muscache.com/im/pictures/242ed963-bf5e-4217-8f9d-e10fd07617df.jpg?aki_policy=large,Christopher 'Scott',100%,t,t,https://a0.muscache.com/im/pictures/bf310c20-f9ef-4427-937a-00f030c2f370.jpg?aki_policy=profile_small,https://a0.muscache.com/im/pictures/bf310c20-f9ef-4427-937a-00f030c2f370.jpg?aki_policy=profile_x_medium,Noe Valley,House,1,1,102.00,,1850.00,43,-122.4245638,37.7470781,200,97,2.57
138592,https://www.airbnb.com/rooms/138592,Modern Architectural Gem - 4 Bdrm,https://a0.muscache.com/im/pictures/71681831/30067af7_original.jpg?aki_policy=large,Julie & Brad,100%,t,t,https://a0.muscache.com/im/users/648553/profile_pic/1426711695/original.jpg?aki_policy=profile_small,https://a0.muscache.com/im/users/648553/profile_pic/1426711695/original.jpg?aki_policy=profile_x_medium,Mission District,House,4,2,1200.00,,,51,-122.4247407,37.75557545,21,98,0.25
138619,https://www.airbnb.com/rooms/138619,North Beach View & Garden 1BD/1BA,https://a0.muscache.com/im/pictures/883289/39b0bc5b_original.jpg?aki_policy=large,Matthew,86%,f,t,https://a0.muscache.com/im/users/644896/profile_pic/1307586626/original.jpg?aki_policy=profile_small,https://a0.muscache.com/im/users/644896/profile_pic/1307586626/original.jpg?aki_policy=profile_x_medium,Telegraph Hill,Apartment,1,1,150.00,1500.00,,340,-122.404197,37.79835394,39,90,0.45
138681,https://www.airbnb.com/rooms/138681,Modern 3 bedroom 2 bath w/parking,https://a0.muscache.com/im/pictures/1051720/cf833560_original.jpg?aki_policy=large,Alvaro,100%,f,t,https://a0.muscache.com/im/users/513978/profile_pic/1302996810/original.jpg?aki_policy=profile_small,https://a0.muscache.com/im/users/513978/profile_pic/1302996810/original.jpg?aki_policy=profile_x_medium,SoMa,Apartment,3,2,500.00,600.00,2000.00,253,-122.3968654,37.77284289,2,100,0.02
138772,https://www.airbnb.com/rooms/138772,Garden Studio,https://a0.muscache.com/im/pictures/64255202/f21d16c1_original.jpg?aki_policy=large,Claire,100%,t,t,https://a0.muscache.com/im/users/261304/profile_pic/1319905429/original.jpg?aki_policy=profile_small,https://a0.muscache.com/im/users/261304/profile_pic/1319905429/original.jpg?aki_policy=profile_x_medium,The Castro,House,1,1,150.00,1200.00,2000.00,77,-122.4327331,37.75822672,52,98,0.6
140568,https://www.airbnb.com/rooms/140568,Bernal Heights San Francisco Value,https://a0.muscache.com/im/pictures/1715814/35640d70_original.jpg?aki_policy=large,Mary,100%,t,t,https://a0.muscache.com/im/users/684131/profile_pic/1383515340/original.jpg?aki_policy=profile_small,https://a0.muscache.com/im/users/684131/profile_pic/1383515340/original.jpg?aki_policy=profile_x_medium,Bernal Heights,Apartment,1,1,90.00,650.00,,37,-122.4162381,37.73873566,135,97,1.57
142177,https://www.airbnb.com/rooms/142177,"Stylish, Spacious and Quiet Flat!",https://a0.muscache.com/im/pictures/942296/b5473500_original.jpg?aki_policy=large,Noreen,100%,t,t,https://a0.muscache.com/im/users/656263/profile_pic/1364510595/original.jpg?aki_policy=profile_small,https://a0.muscache.com/im/users/656263/profile_pic/1364510595/original.jpg?aki_policy=profile_x_medium,Richmond District,Apartment,2,1,425.00,,,8,-122.4812497,37.78470578,165,98,1.99
144978,https://www.airbnb.com/rooms/144978,Prime Location - Small Basic Room,https://a0.muscache.com/im/pictures/915742/ada9fb1e_original.jpg?aki_policy=large,Jay,100%,t,t,https://a0.muscache.com/im/users/216682/profile_pic/1284924580/original.jpg?aki_policy=profile_small,https://a0.muscache.com/im/users/216682/profile_pic/1284924580/original.jpg?aki_policy=profile_x_medium,Pacific Heights,Apartment,1,,56.00,,,298,-122.4250623,37.7933572,115,93,1.33
145886,https://www.airbnb.com/rooms/145886,"Mission Treehouse 2BR, 2BA, Parking",https://a0.muscache.com/im/pictures/8102799/3a51cfdd_original.jpg?aki_policy=large,Sara,100%,t,t,https://a0.muscache.com/im/pictures/user/8af557a8-d81b-4c0d-8646-b19900067fc9.jpg?aki_policy=profile_small,https://a0.muscache.com/im/pictures/user/8af557a8-d81b-4c0d-8646-b19900067fc9.jpg?aki_policy=profile_x_medium,,Townhouse,2,2,395.00,2279.00,6200.00,337,-122.4165897,37.76408733,112,96,1.29
147443,https://www.airbnb.com/rooms/147443,Best Views in all of San Francisco,https://a0.muscache.com/im/pictures/2843751/5fd2dd56_original.jpg?aki_policy=large,Mark,100%,f,t,https://a0.muscache.com/im/users/709325/profile_pic/1345783770/original.jpg?aki_policy=profile_small,https://a0.muscache.com/im/users/709325/profile_pic/1345783770/original.jpg?aki_policy=profile_x_medium,,Apartment,2,1.5,230.00,1550.00,4250.00,325,-122.4453205,37.74598781,106,92,1.23
148559,https://www.airbnb.com/rooms/148559,"Central Victorian Apartment, 2.5 br",https://a0.muscache.com/im/pictures/20065408/767f9265_original.jpg?aki_policy=large,Steven,100%,f,t,https://a0.muscache.com/im/users/717236/profile_pic/1308449246/original.jpg?aki_policy=profile_small,https://a0.muscache.com/im/users/717236/profile_pic/1308449246/original.jpg?aki_policy=profile_x_medium,Duboce Triangle,Apartment,2,1,275.00,1900.00,,0,-122.4317222,37.76787022,19,99,0.22
148769,https://www.airbnb.com/rooms/148769,Ground Floor Studio with Garage Parking,https://a0.muscache.com/im/pictures/940797/1632a4f6_original.jpg?aki_policy=large,Mark,100%,f,t,https://a0.muscache.com/im/users/709325/profile_pic/1345783770/original.jpg?aki_policy=profile_small,https://a0.muscache.com/im/users/709325/profile_pic/1345783770/original.jpg?aki_policy=profile_x_medium,,Apartment,1,1,115.00,770.00,,310,-122.4492788,37.75195066,87,82,1.73
150053,https://www.airbnb.com/rooms/150053,1600 sqft Luxury Apartment,https://a0.muscache.com/im/pictures/6401215/e4d6796b_original.jpg?aki_policy=large,Helena,90%,f,t,https://a0.muscache.com/im/pictures/fa6a1564-659e-49e3-9209-f9e99d652344.jpg?aki_policy=profile_small,https://a0.muscache.com/im/pictures/fa6a1564-659e-49e3-9209-f9e99d652344.jpg?aki_policy=profile_x_medium,South Beach,Apartment,3,2.5,600.00,3500.00,12000.00,365,-122.3922239,37.78759759,12,100,0.14
150347,https://www.airbnb.com/rooms/150347,Cute Private 2Br Apt in the Mission,https://a0.muscache.com/im/pictures/28716625/4b9e60b8_original.jpg?aki_policy=large,Brian & Leah,94%,t,t,https://a0.muscache.com/im/users/172182/profile_pic/1377881609/original.jpg?aki_policy=profile_small,https://a0.muscache.com/im/users/172182/profile_pic/1377881609/original.jpg?aki_policy=profile_x_medium,Mission District,Apartment,2,1,179.00,1350.00,4800.00,327,-122.4187604,37.76202211,115,94,1.34
150848,https://www.airbnb.com/rooms/150848,SF Urban Haven & Secret Garden,https://a0.muscache.com/im/pictures/859187c0-7d3b-4ca5-ade3-78f535987337.jpg?aki_policy=large,Nancy,100%,t,t,https://a0.muscache.com/im/users/726513/profile_pic/1405196909/original.jpg?aki_policy=profile_small,https://a0.muscache.com/im/users/726513/profile_pic/1405196909/original.jpg?aki_policy=profile_x_medium,Potrero Hill,Townhouse,1,1,75.00,,,131,-122.3939147,37.76199539,192,99,2.28
162934,https://www.airbnb.com/rooms/162934,Designer remodeled studio,https://a0.muscache.com/im/pictures/92452114/7dc88556_original.jpg?aki_policy=large,Noelle,100%,t,t,https://a0.muscache.com/im/users/778281/profile_pic/1309971401/original.jpg?aki_policy=profile_small,https://a0.muscache.com/im/users/778281/profile_pic/1309971401/original.jpg?aki_policy=profile_x_medium,Richmond District,Apartment,1,1,149.00,,,296,-122.5037843,37.77760606,183,94,2.13
164207,https://www.airbnb.com/rooms/164207,"Quiet area by subway, private bath",https://a0.muscache.com/im/pictures/1879d15b-b77d-46de-a254-a9a6ba48fff8.jpg?aki_policy=large,Phil,100%,t,t,https://a0.muscache.com/im/pictures/user/12afbc2d-e5d2-48ac-af51-0d310185f52d.jpg?aki_policy=profile_small,https://a0.muscache.com/im/pictures/user/12afbc2d-e5d2-48ac-af51-0d310185f52d.jpg?aki_policy=profile_x_medium,West Portal,House,1,1,69.00,,,105,-122.465782,37.74159258,305,97,3.55
166199,https://www.airbnb.com/rooms/166199,Castro Cottage w/ Secret Garden,https://a0.muscache.com/im/pictures/1704335/ed701854_original.jpg?aki_policy=large,Matt,70%,f,t,https://a0.muscache.com/im/users/792371/profile_pic/1311624682/original.jpg?aki_policy=profile_small,https://a0.muscache.com/im/users/792371/profile_pic/1311624682/original.jpg?aki_policy=profile_x_medium,The Castro,Guesthouse,1,1,220.00,1200.00,4500.00,28,-122.432392,37.7619363,147,96,1.74
166771,https://www.airbnb.com/rooms/166771,DOWNEY STREET - Victorian Flat,https://a0.muscache.com/im/pictures/a95959c9-5a98-418b-84a9-8f7e257eb426.jpg?aki_policy=large,Patti,100%,f,t,https://a0.muscache.com/im/users/794467/profile_pic/1325368085/original.jpg?aki_policy=profile_small,https://a0.muscache.com/im/users/794467/profile_pic/1325368085/original.jpg?aki_policy=profile_x_medium,Haight-Ashbury,Apartment,1,1,185.00,1200.00,4750.00,330,-122.4467843,37.76827235,149,97,1.76
175090,https://www.airbnb.com/rooms/175090,FINANCIAL DIST: Gino's Cozy Getaway,https://a0.muscache.com/im/pictures/3469146/1e234f34_original.jpg?aki_policy=large,Annette,97%,f,t,https://a0.muscache.com/im/pictures/d8938245-cc5e-4d01-8131-6006c8e934a5.jpg?aki_policy=profile_small,https://a0.muscache.com/im/pictures/d8938245-cc5e-4d01-8131-6006c8e934a5.jpg?aki_policy=profile_x_medium,Financial District,Apartment,0,1,110.00,,3600.00,340,-122.4047484,37.79018403,24,87,0.28
175102,https://www.airbnb.com/rooms/175102,FIN. DIST: Mario's Studio Penthouse,https://a0.muscache.com/im/pictures/3469991/aa71300f_original.jpg?aki_policy=large,Annette,97%,f,t,https://a0.muscache.com/im/pictures/d8938245-cc5e-4d01-8131-6006c8e934a5.jpg?aki_policy=profile_small,https://a0.muscache.com/im/pictures/d8938245-cc5e-4d01-8131-6006c8e934a5.jpg?aki_policy=profile_x_medium,Financial District,Apartment,0,1,135.00,,4700.00,354,-122.4040296,37.7907639,48,94,0.57
176092,https://www.airbnb.com/rooms/176092,Private Garden Artist Space,https://a0.muscache.com/im/pictures/11845619/85993a24_original.jpg?aki_policy=large,Carolyn,100%,f,t,https://a0.muscache.com/im/pictures/a87d581e-1b0d-4827-887b-1e4b5e92daf5.jpg?aki_policy=profile_small,https://a0.muscache.com/im/pictures/a87d581e-1b0d-4827-887b-1e4b5e92daf5.jpg?aki_policy=profile_x_medium,,Loft,1,1,117.00,725.00,2300.00,16,-122.4093401,37.75271742,262,98,3.06
176274,https://www.airbnb.com/rooms/176274,Mission Outr PvtBDRm2D& minifridge,https://a0.muscache.com/im/pictures/64947977/29132091_original.jpg?aki_policy=large,Maria,82%,f,t,https://a0.muscache.com/im/users/305973/profile_pic/1295155681/original.jpg?aki_policy=profile_small,https://a0.muscache.com/im/users/305973/profile_pic/1295155681/original.jpg?aki_policy=profile_x_medium,Excelsior,House,1,1,40.00,,1175.00,283,-122.42325,37.73142636,8,84,0.09
178532,https://www.airbnb.com/rooms/178532,Luxury/Modern 2-story Condo,https://a0.muscache.com/im/pictures/1242baeb-c553-4b46-845c-bf8e19c9c74f.jpg?aki_policy=large,Ron,100%,t,t,https://a0.muscache.com/im/pictures/0f363ce1-87d3-4dcd-b450-95b70c2ffb83.jpg?aki_policy=profile_small,https://a0.muscache.com/im/pictures/0f363ce1-87d3-4dcd-b450-95b70c2ffb83.jpg?aki_policy=profile_x_medium,Richmond District,Condominium,2,2,140.00,,3900.00,265,-122.4549796,37.77556129,113,96,1.32
178740,https://www.airbnb.com/rooms/178740,Gorgeous Spacious Apartment in Unique Mansion,https://a0.muscache.com/im/pictures/27311282/af8c88ba_original.jpg?aki_policy=large,Elizabeth,100%,t,t,https://a0.muscache.com/im/users/791253/profile_pic/1392265820/original.jpg?aki_policy=profile_small,https://a0.muscache.com/im/users/791253/profile_pic/1392265820/original.jpg?aki_policy=profile_x_medium,Richmond District,Guest suite,1,1,178.00,,,51,-122.4542027,37.77818014,119,98,1.39
183334,https://www.airbnb.com/rooms/183334,2 bedroom Bernal Heights Condo - FABULOUS views!,https://a0.muscache.com/im/pictures/2170765/56e16016_original.jpg?aki_policy=large,Cecilia,100%,t,t,https://a0.muscache.com/im/users/18732/profile_pic/1269218075/original.jpg?aki_policy=profile_small,https://a0.muscache.com/im/users/18732/profile_pic/1269218075/original.jpg?aki_policy=profile_x_medium,Bernal Heights,Condominium,2,1,225.00,1200.00,,0,-122.4112181,37.74530647,6,100,0.07
183859,https://www.airbnb.com/rooms/183859,"Family-Friendly Flat In San Francisco, CA. USA",https://a0.muscache.com/im/pictures/6252700/79a6b8c4_original.jpg?aki_policy=large,Stephen,100%,t,t,https://a0.muscache.com/im/pictures/07894f38-5b0a-479a-a9a0-38d34cde6de1.jpg?aki_policy=profile_small,https://a0.muscache.com/im/pictures/07894f38-5b0a-479a-a9a0-38d34cde6de1.jpg?aki_policy=profile_x_medium,Glen Park,House,2,1,220.00,1365.00,4900.00,266,-122.4367697,37.73625672,185,97,2.45
187730,https://www.airbnb.com/rooms/187730,Bohemian Rhapsody in the Mission,https://a0.muscache.com/im/pictures/1201774/922693f9_original.jpg?aki_policy=large,Jessica And Sebouh,94%,t,t,https://a0.muscache.com/im/users/142882/profile_pic/1414130558/original.jpg?aki_policy=profile_small,https://a0.muscache.com/im/users/142882/profile_pic/1414130558/original.jpg?aki_policy=profile_x_medium,Mission District,Apartment,1,2,75.00,,1500.00,314,-122.4193947,37.75756728,87,96,1.03
189068,https://www.airbnb.com/rooms/189068,Bernal Heights Live Like a Local,https://a0.muscache.com/im/pictures/1716268/168188fd_original.jpg?aki_policy=large,Mary,100%,t,t,https://a0.muscache.com/im/users/684131/profile_pic/1383515340/original.jpg?aki_policy=profile_small,https://a0.muscache.com/im/users/684131/profile_pic/1383515340/original.jpg?aki_policy=profile_x_medium,Bernal Heights,Apartment,1,1,90.00,,,34,-122.4168711,37.73856392,151,98,1.78
189894,https://www.airbnb.com/rooms/189894,SF  PRIME MARINA LOCATION RENTAL,https://a0.muscache.com/im/pictures/7893eb53-fb97-49b0-9e7a-2e81849c1032.jpg?aki_policy=large,Jacqueline,100%,t,t,https://a0.muscache.com/im/users/916362/profile_pic/1317066974/original.jpg?aki_policy=profile_small,https://a0.muscache.com/im/users/916362/profile_pic/1317066974/original.jpg?aki_policy=profile_x_medium,Marina,Apartment,1,1,150.00,,3000.00,48,-122.4297737,37.80317808,28,97,0.39
190878,https://www.airbnb.com/rooms/190878,Whimsical Decor and Sweeping Views,https://a0.muscache.com/im/pictures/310e77c5-4168-4bd3-be72-0bd845ac2fcb.jpg?aki_policy=large,John,64%,f,t,https://a0.muscache.com/im/users/922289/profile_pic/1312484483/original.jpg?aki_policy=profile_small,https://a0.muscache.com/im/users/922289/profile_pic/1312484483/original.jpg?aki_policy=profile_x_medium,Glen Park,Apartment,0,1,135.00,1300.00,4500.00,313,-122.4296976,37.73794406,18,85,0.21
191632,https://www.airbnb.com/rooms/191632,Private Entrance Garden Studio,https://a0.muscache.com/im/pictures/b947adeb-eb58-4268-a5f4-05b98f1b2f92.jpg?aki_policy=large,Maria,100%,t,t,https://a0.muscache.com/im/pictures/user/de0edcdd-b673-456c-85ba-f6a2faaf9668.jpg?aki_policy=profile_small,https://a0.muscache.com/im/pictures/user/de0edcdd-b673-456c-85ba-f6a2faaf9668.jpg?aki_policy=profile_x_medium,Western Addition/NOPA,Guest suite,1,1,138.00,,3000.00,181,-122.4497861,37.77310912,372,97,4.38
196090,https://www.airbnb.com/rooms/196090,Nice Bedroom in Spacious House,https://a0.muscache.com/im/pictures/1266484/fb69d58e_original.jpg?aki_policy=large,Mickey,,f,t,https://a0.muscache.com/im/pictures/920fef56-e2cc-4fcc-9d42-e220cd232f1d.jpg?aki_policy=profile_small,https://a0.muscache.com/im/pictures/920fef56-e2cc-4fcc-9d42-e220cd232f1d.jpg?aki_policy=profile_x_medium,Bernal Heights,House,1,1,85.00,450.00,1300.00,78,-122.4108111,37.73725509,31,94,0.37
199480,https://www.airbnb.com/rooms/199480,One room overlooking Precita Park,https://a0.muscache.com/im/pictures/1936510/3f888586_original.jpg?aki_policy=large,Peter,100%,t,t,https://a0.muscache.com/im/users/974441/profile_pic/1313714973/original.jpg?aki_policy=profile_small,https://a0.muscache.com/im/users/974441/profile_pic/1313714973/original.jpg?aki_policy=profile_x_medium,Bernal Heights,Apartment,1,1.5,90.00,,,212,-122.4118731,37.74556737,175,98,2.07
201313,https://www.airbnb.com/rooms/201313,Fully Furnished 1 bedroom apartment,https://a0.muscache.com/im/pictures/c96832f5-2ece-40ef-b2b4-3dcf273df813.jpg?aki_policy=large,Robb,100%,f,t,https://a0.muscache.com/im/pictures/0d3ad18b-0a0f-4e59-86b0-72c289f6c3cc.jpg?aki_policy=profile_small,https://a0.muscache.com/im/pictures/0d3ad18b-0a0f-4e59-86b0-72c289f6c3cc.jpg?aki_policy=profile_x_medium,Telegraph Hill,Serviced apartment,1,1,182.00,,,227,-122.404845,37.80340358,1,,0.37
201579,https://www.airbnb.com/rooms/201579,Renovated Historic Home,https://a0.muscache.com/im/pictures/c79dcf0f-be41-4a16-8247-0e893c69ce9e.jpg?aki_policy=large,Eric,100%,t,t,https://a0.muscache.com/im/users/986510/profile_pic/1313807719/original.jpg?aki_policy=profile_small,https://a0.muscache.com/im/users/986510/profile_pic/1313807719/original.jpg?aki_policy=profile_x_medium,Alamo Square,Apartment,1,1.5,136.00,1595.00,4875.00,305,-122.4332635,37.77755722,212,97,2.51
205842,https://www.airbnb.com/rooms/205842,Potrero Hill Garden Cabana,https://a0.muscache.com/im/pictures/8037338/b11427ee_original.jpg?aki_policy=large,Kepa,100%,t,t,https://a0.muscache.com/im/pictures/user/9fb305b5-f77c-4245-9d5e-96eb158b8d90.jpg?aki_policy=profile_small,https://a0.muscache.com/im/pictures/user/9fb305b5-f77c-4245-9d5e-96eb158b8d90.jpg?aki_policy=profile_x_medium,Potrero Hill,House,1,1,230.00,,,299,-122.3976267,37.76487422,610,99,8.29
206566,https://www.airbnb.com/rooms/206566,Monthly Shared Home for Students 3,https://a0.muscache.com/im/pictures/1796605/2d4b2603_original.jpg?aki_policy=large,Darren & Friends,99%,f,t,https://a0.muscache.com/im/users/329072/profile_pic/1293574350/original.jpg?aki_policy=profile_small,https://a0.muscache.com/im/users/329072/profile_pic/1293574350/original.jpg?aki_policy=profile_x_medium,Chinatown,House,1,2.5,29.00,,880.00,305,-122.404977,37.79507377,8,100,0.13
206634,https://www.airbnb.com/rooms/206634,Monthly Shared Home for Students 4,https://a0.muscache.com/im/pictures/1999227/e5064734_original.jpg?aki_policy=large,Darren & Friends,99%,f,t,https://a0.muscache.com/im/users/329072/profile_pic/1293574350/original.jpg?aki_policy=profile_small,https://a0.muscache.com/im/users/329072/profile_pic/1293574350/original.jpg?aki_policy=profile_x_medium,Chinatown,House,1,2.5,29.00,,880.00,236,-122.4052333,37.79466145,5,100,0.06
206637,https://www.airbnb.com/rooms/206637,Monthly Shared Home for Students 5,https://a0.muscache.com/im/pictures/1999326/86f6c849_original.jpg?aki_policy=large,Darren & Friends,99%,f,t,https://a0.muscache.com/im/users/329072/profile_pic/1293574350/original.jpg?aki_policy=profile_small,https://a0.muscache.com/im/users/329072/profile_pic/1293574350/original.jpg?aki_policy=profile_x_medium,Chinatown,House,1,2.5,29.00,,880.00,319,-122.4063746,37.79290807,3,80,0.05
207980,https://www.airbnb.com/rooms/207980,"3 Bdrm City View Home w/Parking, deck,",https://a0.muscache.com/im/pictures/3957592/b2bbeea0_original.jpg?aki_policy=large,Bruce,100%,t,t,https://a0.muscache.com/im/users/1023546/profile_pic/1410283733/original.jpg?aki_policy=profile_small,https://a0.muscache.com/im/users/1023546/profile_pic/1410283733/original.jpg?aki_policy=profile_x_medium,Diamond Heights,House,3,1,295.00,2200.00,8000.00,234,-122.4377567,37.74445892,305,96,3.64
208727,https://www.airbnb.com/rooms/208727,"Full Floor Flat, Priv.Bath Mid-Richmond,",https://a0.muscache.com/im/pictures/12612715/a8eaf9b8_original.jpg?aki_policy=large,Robert,100%,f,t,https://a0.muscache.com/im/users/519598/profile_pic/1337207796/original.jpg?aki_policy=profile_small,https://a0.muscache.com/im/users/519598/profile_pic/1337207796/original.jpg?aki_policy=profile_x_medium,Richmond District,Apartment,1,2.5,89.00,850.00,2570.00,330,-122.4897119,37.78264839,27,96,0.36
208831,https://www.airbnb.com/rooms/208831,Virtually Your Own Apt in Nth Beach,https://a0.muscache.com/im/pictures/1990594/98798ad4_original.jpg?aki_policy=large,Peter,100%,t,t,https://a0.muscache.com/im/users/1028577/profile_pic/1316487451/original.jpg?aki_policy=profile_small,https://a0.muscache.com/im/users/1028577/profile_pic/1316487451/original.jpg?aki_policy=profile_x_medium,North Beach,Guest suite,1,1,165.00,,,91,-122.4144019,37.80242099,403,95,4.82
209514,https://www.airbnb.com/rooms/209514,Haight Ashbury Experience Room 2,https://a0.muscache.com/im/pictures/6e898517-0b37-4711-b061-7041a7a51995.jpg?aki_policy=large,Josh,98%,f,t,https://a0.muscache.com/im/users/1032643/profile_pic/1315000349/original.jpg?aki_policy=profile_small,https://a0.muscache.com/im/users/1032643/profile_pic/1315000349/original.jpg?aki_policy=profile_x_medium,Haight-Ashbury,House,1,2,92.00,,,308,-122.4496256,37.77118402,334,93,3.97
212297,https://www.airbnb.com/rooms/212297,"Modern, bright, sexy Mission flat",https://a0.muscache.com/im/pictures/6289126/b36f31b9_original.jpg?aki_policy=large,Jennifer,100%,f,t,https://a0.muscache.com/im/users/681462/profile_pic/1403975153/original.jpg?aki_policy=profile_small,https://a0.muscache.com/im/users/681462/profile_pic/1403975153/original.jpg?aki_policy=profile_x_medium,Mission District,Apartment,1,1.5,120.00,,,217,-122.4232362,37.7674576,132,93,1.78
212783,https://www.airbnb.com/rooms/212783,Haight Ashbury Experience Room 1,https://a0.muscache.com/im/pictures/85cd6bc8-ee4b-40c1-a59c-caad9b7d9995.jpg?aki_policy=large,Josh,98%,f,t,https://a0.muscache.com/im/users/1032643/profile_pic/1315000349/original.jpg?aki_policy=profile_small,https://a0.muscache.com/im/users/1032643/profile_pic/1315000349/original.jpg?aki_policy=profile_x_medium,Haight-Ashbury,House,1,2,98.00,,,308,-122.4494184,37.77107886,317,90,3.77
213216,https://www.airbnb.com/rooms/213216,Elegant Mediterranean Garden Home near the Castro,"https://a0.muscache.com/4ea/air/v2//pictures/0c87a8cc-533d-4506-a1f6-0828265fde54.jpg?t=r:w1200-h720-sfit,e:fjpg-c85",Saundra,100%,t,t,https://a0.muscache.com/im/users/465520/profile_pic/1442685801/original.jpg?aki_policy=profile_small,https://a0.muscache.com/im/users/465520/profile_pic/1442685801/original.jpg?aki_policy=profile_x_medium,Haight-Ashbury,House,3,2,625.00,,,121,-122.4366624,37.76801054,33,97,0.4
213532,https://www.airbnb.com/rooms/213532,Haight Ashbury Experience Room 4,https://a0.muscache.com/im/pictures/5b7ec292-6394-4fbb-b53d-e2b16fa27a1e.jpg?aki_policy=large,Josh,98%,f,t,https://a0.muscache.com/im/users/1032643/profile_pic/1315000349/original.jpg?aki_policy=profile_small,https://a0.muscache.com/im/users/1032643/profile_pic/1315000349/original.jpg?aki_policy=profile_x_medium,Haight-Ashbury,House,1,2,78.00,,,305,-122.4481135,37.77084767,347,88,4.14
216042,https://www.airbnb.com/rooms/216042,Bernal Heights Views Garden Hottub,https://a0.muscache.com/im/pictures/31872691/5ef87a92_original.jpg?aki_policy=large,Jocelyn,100%,f,t,https://a0.muscache.com/im/users/1115353/profile_pic/1315451298/original.jpg?aki_policy=profile_small,https://a0.muscache.com/im/users/1115353/profile_pic/1315451298/original.jpg?aki_policy=profile_x_medium,Bernal Heights,House,1,1,147.00,964.00,,248,-122.4177267,37.74382383,48,99,0.57
216064,https://www.airbnb.com/rooms/216064,AUMVersity Quiet Retreat Cozy Family Spot,https://a0.muscache.com/im/pictures/9a0d37a6-303d-40c7-bb4a-c6d767aa7883.jpg?aki_policy=large,Mukt,100%,f,t,https://a0.muscache.com/im/users/812808/profile_pic/1332803774/original.jpg?aki_policy=profile_small,https://a0.muscache.com/im/users/812808/profile_pic/1332803774/original.jpg?aki_policy=profile_x_medium,Mission Terrace,House,1,2,75.00,,,0,-122.4346791,37.72652012,84,92,1
217106,https://www.airbnb.com/rooms/217106,Great Ashbury Studio in SF  #3,https://a0.muscache.com/im/pictures/3081442/fd0eca68_original.jpg?aki_policy=large,Eric,80%,f,t,https://a0.muscache.com/im/users/374909/profile_pic/1408813660/original.jpg?aki_policy=profile_small,https://a0.muscache.com/im/users/374909/profile_pic/1408813660/original.jpg?aki_policy=profile_x_medium,Haight-Ashbury,Apartment,0,1,110.00,1000.00,3300.00,325,-122.4452314,37.7646809,40,94,0.48
218567,https://www.airbnb.com/rooms/218567,Balcony on Fillmore Street +Parking,https://a0.muscache.com/im/pictures/1949498/ff0db708_original.jpg?aki_policy=large,Marin,100%,f,t,https://a0.muscache.com/im/pictures/user/381ec3e7-eda6-4c5b-a94e-7a52fe3edf43.jpg?aki_policy=profile_small,https://a0.muscache.com/im/pictures/user/381ec3e7-eda6-4c5b-a94e-7a52fe3edf43.jpg?aki_policy=profile_x_medium,Japantown,Serviced apartment,1,1,150.00,,4500.00,262,-122.4321929,37.78594365,88,96,1.05
220418,https://www.airbnb.com/rooms/220418,Haight Ashbury Experience Room 3,https://a0.muscache.com/im/pictures/2048855e-b5ce-4dd8-8383-2ffea76e9543.jpg?aki_policy=large,Josh,98%,f,t,https://a0.muscache.com/im/users/1032643/profile_pic/1315000349/original.jpg?aki_policy=profile_small,https://a0.muscache.com/im/users/1032643/profile_pic/1315000349/original.jpg?aki_policy=profile_x_medium,Haight-Ashbury,House,1,2,78.00,,,305,-122.4501926,37.7704207,320,89,3.82
220780,https://www.airbnb.com/rooms/220780,"Room in home near beach San  Francisco, Ca",https://a0.muscache.com/im/pictures/f39bab2d-899c-40bd-aa1c-f95bace6994e.jpg?aki_policy=large,Victor,,f,t,https://a0.muscache.com/im/pictures/a42d2a44-8db9-45de-bdd7-780f1d17f34d.jpg?aki_policy=profile_small,https://a0.muscache.com/im/pictures/a42d2a44-8db9-45de-bdd7-780f1d17f34d.jpg?aki_policy=profile_x_medium,Richmond District,House,1,1,162.00,,,90,-122.5070188,37.77579266,0,,
221342,https://www.airbnb.com/rooms/221342,View Penthouse Master Suite & Decks,https://a0.muscache.com/im/pictures/9904854/4f428beb_original.jpg?aki_policy=large,Bill,100%,f,t,https://a0.muscache.com/im/pictures/user/1fe7c47f-bdb7-4112-ab86-ea35b9cd69fb.jpg?aki_policy=profile_small,https://a0.muscache.com/im/pictures/user/1fe7c47f-bdb7-4112-ab86-ea35b9cd69fb.jpg?aki_policy=profile_x_medium,Russian Hill,Apartment,1,1,139.00,,10000.00,21,-122.4153959,37.802811,150,95,1.79
224579,https://www.airbnb.com/rooms/224579,Beautiful luxury house w/ Deck,https://a0.muscache.com/im/pictures/2888712/22ae8cb3_original.jpg?aki_policy=large,Armelle,90%,t,t,https://a0.muscache.com/im/users/1168946/profile_pic/1317412476/original.jpg?aki_policy=profile_small,https://a0.muscache.com/im/users/1168946/profile_pic/1317412476/original.jpg?aki_policy=profile_x_medium,Mission District,House,1,1,145.00,1200.00,4000.00,9,-122.404779,37.75631937,55,97,0.66
224671,https://www.airbnb.com/rooms/224671,"Modern 2Bd, 2Ba Downtown Apartment",https://a0.muscache.com/im/pictures/2275842/3cb5875a_original.jpg?aki_policy=large,Shirley,,f,t,https://a0.muscache.com/im/pictures/user/62aa8079-88bd-4bbd-9b47-9ecf13fbee12.jpg?aki_policy=profile_small,https://a0.muscache.com/im/pictures/user/62aa8079-88bd-4bbd-9b47-9ecf13fbee12.jpg?aki_policy=profile_x_medium,Civic Center,Apartment,2,2,300.00,2100.00,7000.00,180,-122.4187758,37.77653321,10,100,0.32
225205,https://www.airbnb.com/rooms/225205,Private Mission Room Near Valencia,https://a0.muscache.com/im/pictures/2242552/ce10ae8f_original.jpg?aki_policy=large,Chris,88%,t,t,https://a0.muscache.com/im/pictures/15f4d9a7-b72b-4a35-9170-58c669338e42.jpg?aki_policy=profile_small,https://a0.muscache.com/im/pictures/15f4d9a7-b72b-4a35-9170-58c669338e42.jpg?aki_policy=profile_x_medium,Mission District,Apartment,1,1,115.00,,,17,-122.4231305,37.76096715,330,94,3.94
225933,https://www.airbnb.com/rooms/225933,Art lovers to the Duboce Triangle!,https://a0.muscache.com/im/pictures/7215235/bb4905a1_original.jpg?aki_policy=large,Marcia,100%,f,t,https://a0.muscache.com/im/users/1177567/profile_pic/1316392606/original.jpg?aki_policy=profile_small,https://a0.muscache.com/im/users/1177567/profile_pic/1316392606/original.jpg?aki_policy=profile_x_medium,Duboce Triangle,Apartment,1,1,95.00,680.00,1800.00,90,-122.4308606,37.76840265,168,95,2.07
226594,https://www.airbnb.com/rooms/226594,Beautiful Cole Valley/Haight Flat.,https://a0.muscache.com/im/pictures/43852805/37e04105_original.jpg?aki_policy=large,Steve,89%,f,t,https://a0.muscache.com/im/users/1191853/profile_pic/1378732336/original.jpg?aki_policy=profile_small,https://a0.muscache.com/im/users/1191853/profile_pic/1378732336/original.jpg?aki_policy=profile_x_medium,Haight-Ashbury,Apartment,1,0.5,120.00,590.00,2100.00,335,-122.4519325,37.76968017,72,99,0.86
229240,https://www.airbnb.com/rooms/229240,Friendly Hostel with Community #3,https://a0.muscache.com/im/pictures/2220269/d7ad9746_original.jpg?aki_policy=large,Darren & Friends,99%,f,t,https://a0.muscache.com/im/users/329072/profile_pic/1293574350/original.jpg?aki_policy=profile_small,https://a0.muscache.com/im/users/329072/profile_pic/1293574350/original.jpg?aki_policy=profile_x_medium,Financial District,Hostel,1,,45.00,329.00,,18,-122.4033994,37.79341364,285,93,3.41
229319,https://www.airbnb.com/rooms/229319,Bernal pied-Ã -terre,https://a0.muscache.com/im/pictures/32812571/f1158be6_original.jpg?aki_policy=large,Anya,90%,f,t,https://a0.muscache.com/im/users/12798954/profile_pic/1393961600/original.jpg?aki_policy=profile_small,https://a0.muscache.com/im/users/12798954/profile_pic/1393961600/original.jpg?aki_policy=profile_x_medium,Bernal Heights,Apartment,1,1,135.00,,4200.00,5,-122.4156629,37.73818716,18,97,0.23
231752,https://www.airbnb.com/rooms/231752,Vintage Modern garden apartment,https://a0.muscache.com/im/pictures/2938369/ee92b0bb_original.jpg?aki_policy=large,LeighAnna,100%,t,t,https://a0.muscache.com/im/pictures/c855ed9f-92e5-4899-95d4-2fd151925a02.jpg?aki_policy=profile_small,https://a0.muscache.com/im/pictures/c855ed9f-92e5-4899-95d4-2fd151925a02.jpg?aki_policy=profile_x_medium,The Castro,Apartment,1,1,250.00,,6800.00,334,-122.4402179,37.75564727,73,99,0.9
232060,https://www.airbnb.com/rooms/232060,Lovely Private Suite Near UCSF- Monthly Only,https://a0.muscache.com/im/pictures/2302882/9f8514b0_original.jpg?aki_policy=large,Syl & Art,,f,t,https://a0.muscache.com/im/users/1214006/profile_pic/1365901303/original.jpg?aki_policy=profile_small,https://a0.muscache.com/im/users/1214006/profile_pic/1365901303/original.jpg?aki_policy=profile_x_medium,,Apartment,1,1,99.00,,3120.00,248,-122.4644436,37.75854624,113,98,1.43
